{
"type": "FeatureCollection",
"crs": { "type": "name", "properties": { "name": "urn:ogc:def:crs:OGC:1.3:CRS84" } },
"features": [
{ "type": "Feature", "properties": { "NAME": "RUTGERS THE STATE UNIVERSITY OF NJ", "STREET": "42 RIVA AVE", "CITY": "N BRUNSWICK", "STATE": "NJ", "ZIP": "08902-4734", "OrgFocus": "Youth Development - Agricultural", "address": "42 RIVA AVE     , N BRUNSWICK, NJ, 08902", "lat": "40.4101710116538", "lon": "-74.49545000423466", "Stew_Gr": 0 }, "geometry": { "type": "Point", "coordinates": [ -74.495450004234655, 40.410171011653802 ] } },
{ "type": "Feature", "properties": { "NAME": "FRIENDS FOR A GREENER BARNARDSVILLE INC", "STREET": "PO BOX 420", "CITY": "BERNARDSVILLE", "STATE": "NJ", "ZIP": "07924-0420", "OrgFocus": "Botanical Gardens, Arboreta and Botanical Organizations", "address": "PO BOX 420     , BERNARDSVILLE, NJ, 07924", "lat": "40.7262", "lon": "-74.5921", "Stew_Gr": 0 }, "geometry": { "type": "Point", "coordinates": [ -74.5921, 40.7262 ] } },
{ "type": "Feature", "properties": { "NAME": "RUTGERS THE STATE UNIVERSITY OF NJ", "STREET": "1 SPRING STREET", "CITY": "NEWTON", "STATE": "NJ", "ZIP": "07860-2070", "OrgFocus": "Youth Development - Agricultural", "address": "1 SPRING  STREET   , NEWTON, NJ, 07860", "lat": "41.05892000769214", "lon": "-74.75271902734075", "Stew_Gr": 0 }, "geometry": { "type": "Point", "coordinates": [ -74.752719027340746, 41.058920007692137 ] } },
{ "type": "Feature", "properties": { "NAME": "RUTGERS THE STATE UNIVERSITY OF NJ", "STREET": "42 RIVA AVE", "CITY": "N BRUNSWICK", "STATE": "NJ", "ZIP": "08902-4734", "OrgFocus": "Youth Development - Agricultural", "address": "42 RIVA AVE     , N BRUNSWICK, NJ, 08902", "lat": "40.4101710116538", "lon": "-74.49545000423466", "Stew_Gr": 0 }, "geometry": { "type": "Point", "coordinates": [ -74.495450004234655, 40.410171011653802 ] } },
{ "type": "Feature", "properties": { "NAME": "MAPLEWOOD GARDEN CLUB", "STREET": "PO BOX 121", "CITY": "MAPLEWOOD", "STATE": "NJ", "ZIP": "07040-0121", "OrgFocus": "Garden Club, Horticultural Program", "address": "PO BOX 121     , MAPLEWOOD, NJ, 07040", "lat": "40.7369", "lon": "-74.2680", "Stew_Gr": 0 }, "geometry": { "type": "Point", "coordinates": [ -74.268, 40.7369 ] } },
{ "type": "Feature", "properties": { "NAME": "LACEY FOOD BANK INC", "STREET": "PO BOX 625", "CITY": "FORKED RIVER", "STATE": "NJ", "ZIP": "08731-0625", "OrgFocus": "Food Banks, Food Pantries", "address": "PO BOX 625     , FORKED RIVER, NJ, 08731", "lat": "39.8578", "lon": "-74.2665", "Stew_Gr": 0 }, "geometry": { "type": "Point", "coordinates": [ -74.2665, 39.8578 ] } },
{ "type": "Feature", "properties": { "NAME": "BECKER PARK CONSERVANCY INC", "STREET": "23 CLAIRE CT", "CITY": "EAST HANOVER", "STATE": "NJ", "ZIP": "07936-3578", "OrgFocus": "Natural Resources Conservation and Protection", "address": "23 CLAIRE CT     , EAST HANOVER, NJ, 07936", "lat": "40.80826501865326", "lon": "-74.36610298900217", "Stew_Gr": 0 }, "geometry": { "type": "Point", "coordinates": [ -74.366102989002172, 40.808265018653259 ] } },
{ "type": "Feature", "properties": { "NAME": "KINHAVEN MUSIC SCHOOL INC", "STREET": "6 ELBERTA RD", "CITY": "MAPLEWOOD", "STATE": "NJ", "ZIP": "07040-1806", "OrgFocus": "Camp", "address": "6 ELBERTA RD     , MAPLEWOOD, NJ, 07040", "lat": "40.7294680041864", "lon": "-74.25204800174201", "Stew_Gr": 0 }, "geometry": { "type": "Point", "coordinates": [ -74.252048001742011, 40.729468004186401 ] } },
{ "type": "Feature", "properties": { "NAME": "COMMUNITY CREDIT COUNSELING CORPORATION", "STREET": "3455 STATE ROUTE 66", "CITY": "NEPTUNE", "STATE": "NJ", "ZIP": "07753-2758", "OrgFocus": "Urban, Community Economic Development", "address": "3455 STATE ROUTE 66     , NEPTUNE, NJ, 07753", "lat": "40.22787199366272", "lon": "-74.07364899947943", "Stew_Gr": 0 }, "geometry": { "type": "Point", "coordinates": [ -74.073648999479431, 40.227871993662717 ] } },
{ "type": "Feature", "properties": { "NAME": "KEYPORT MINISTERIUM FOOD PANTRY INC", "STREET": "PO BOX 35", "CITY": "KEYPORT", "STATE": "NJ", "ZIP": "07735-0035", "OrgFocus": "Food Banks, Food Pantries", "address": "PO BOX 35     , KEYPORT, NJ, 07735", "lat": "40.4395", "lon": "-74.1967", "Stew_Gr": 0 }, "geometry": { "type": "Point", "coordinates": [ -74.1967, 40.4395 ] } },
{ "type": "Feature", "properties": { "NAME": "TENAFLY GARDEN CLUB INC", "STREET": "47 LAWRENCE PKWY", "CITY": "TENAFLY", "STATE": "NJ", "ZIP": "07670-2705", "OrgFocus": "Garden Club, Horticultural Program", "address": "47 LAWRENCE PKWY     , TENAFLY, NJ, 07670", "lat": "40.91939300341502", "lon": "-73.96080201210492", "Stew_Gr": 0 }, "geometry": { "type": "Point", "coordinates": [ -73.960802012104921, 40.919393003415024 ] } },
{ "type": "Feature", "properties": { "NAME": "TOMCHEI SHABBOS DLAKEWOOD INC", "STREET": "212 2ND ST", "CITY": "LAKEWOOD", "STATE": "NJ", "ZIP": "08701-3424", "OrgFocus": "Food Banks, Food Pantries", "address": "212 2ND  ST    , LAKEWOOD, NJ, 08701", "lat": "40.09208298292575", "lon": "-74.21270795828323", "Stew_Gr": 0 }, "geometry": { "type": "Point", "coordinates": [ -74.212707958283232, 40.092082982925746 ] } },
{ "type": "Feature", "properties": { "NAME": "EAST COAST SHELLFISH GROWERS ASSOCIATION", "STREET": "1623 WHITESVILLE RD", "CITY": "TOMS RIVER", "STATE": "NJ", "ZIP": "08755-1166", "OrgFocus": "Professional Societies, Associations", "address": "1623 WHITESVILLE RD     , TOMS RIVER, NJ, 08755", "lat": "40.00665198546213", "lon": "-74.22638898446522", "Stew_Gr": 0 }, "geometry": { "type": "Point", "coordinates": [ -74.226388984465217, 40.006651985462128 ] } },
{ "type": "Feature", "properties": { "NAME": "WAGNER FARM ARBORETUM FOUNDATION INC", "STREET": "197 MOUNTAIN AVE", "CITY": "WARREN", "STATE": "NJ", "ZIP": "07059-5138", "OrgFocus": "Botanical Gardens, Arboreta and Botanical Organizations", "address": "197 MOUNTAIN AVE     , WARREN, NJ, 07059", "lat": "40.6501148342852", "lon": "-74.50350447400317", "Stew_Gr": 0 }, "geometry": { "type": "Point", "coordinates": [ -74.503504474003165, 40.650114834285198 ] } },
{ "type": "Feature", "properties": { "NAME": "WOODBRIDGE RIVER WATCH INC", "STREET": "64 S OAK AVE", "CITY": "FORDS", "STATE": "NJ", "ZIP": "08863-1038", "OrgFocus": "Natural Resources Conservation and Protection, Wildlife sanctuary or refuge", "address": "64 S OAK AVE     , FORDS, NJ, 08863", "lat": "40.54424001394969", "lon": "-74.32656395916202", "Stew_Gr": 0 }, "geometry": { "type": "Point", "coordinates": [ -74.326563959162016, 40.54424001394969 ] } },
{ "type": "Feature", "properties": { "NAME": "CITIZENS FOR INFORMED LAND USE INC", "STREET": "PO BOX 632", "CITY": "HOLMDEL", "STATE": "NJ", "ZIP": "07733-0632", "OrgFocus": "Preservation of natural resources (conservation)", "address": "PO BOX 632     , HOLMDEL, NJ, 07733", "lat": "40.3757", "lon": "-74.1727", "Stew_Gr": 0 }, "geometry": { "type": "Point", "coordinates": [ -74.1727, 40.3757 ] } },
{ "type": "Feature", "properties": { "NAME": "CAMP LOUEMMA INC", "STREET": "144 N BEVERWYCK RD 123", "CITY": "LAKE HIAWATHA", "STATE": "NJ", "ZIP": "07034-1932", "OrgFocus": "Camp", "address": "144 N BEVERWYCK RD 123     , LAKE HIAWATHA, NJ, 07034", "lat": "40.8852040166432", "lon": "-74.38081398344637", "Stew_Gr": 0 }, "geometry": { "type": "Point", "coordinates": [ -74.380813983446373, 40.8852040166432 ] } },
{ "type": "Feature", "properties": { "NAME": "FAIR HARBOR COMMUNITY ASSOC INC", "STREET": "C\/O J CORCORAN 7000 JFK BLVD EAST", "CITY": "GUTTENBERG", "STATE": "NJ", "ZIP": "07093-0000", "OrgFocus": "Community Promotion", "address": "C\/O J CORCORAN 7000 JFK BLVD EAST     , GUTTENBERG, NJ, 07093", "lat": "40.79135745777771", "lon": "-74.00046496450409", "Stew_Gr": 0 }, "geometry": { "type": "Point", "coordinates": [ -74.00046496450409, 40.791357457777714 ] } },
{ "type": "Feature", "properties": { "NAME": "NORTHERN CHIOS SOCIETY OF PELINEON INC", "STREET": "250 5TH ST", "CITY": "RIDGEFIELD PK", "STATE": "NJ", "ZIP": "07660-1057", "OrgFocus": "Community Center", "address": "250 5TH  ST    , RIDGEFIELD PK, NJ, 07660", "lat": "40.86451898834878", "lon": "-74.02771801409671", "Stew_Gr": 0 }, "geometry": { "type": "Point", "coordinates": [ -74.027718014096706, 40.864518988348777 ] } },
{ "type": "Feature", "properties": { "NAME": "ASSOCIATION OF AVIAN VETERINARIANS INC", "STREET": "344 VANDELINDA AVE", "CITY": "TEANECK", "STATE": "NJ", "ZIP": "07666-3135", "OrgFocus": "Other conservation, environmental or beautification activities", "address": "344 VANDELINDA AVE     , TEANECK, NJ, 07666", "lat": "40.88442001532968", "lon": "-74.02022300009627", "Stew_Gr": 0 }, "geometry": { "type": "Point", "coordinates": [ -74.020223000096266, 40.884420015329681 ] } },
{ "type": "Feature", "properties": { "NAME": "THE INSTITUTE FOR THE ADVANCEMENT OF EDUCATION IN JAFFA INC", "STREET": "297 S WASHINGTON AVE STE 2", "CITY": "BERGENFIELD", "STATE": "NJ", "ZIP": "07621-3742", "OrgFocus": "Camp", "address": "297 S WASHINGTON  AVE     , BERGENFIELD, NJ, 07621", "lat": "40.91778900051386", "lon": "-73.99679599981606", "Stew_Gr": 0 }, "geometry": { "type": "Point", "coordinates": [ -73.996795999816058, 40.917789000513864 ] } },
{ "type": "Feature", "properties": { "NAME": "THE FISHERMAN SPORT FISHING FUND INC", "STREET": "PO BOX 175", "CITY": "MORRIS PLAINS", "STATE": "NJ", "ZIP": "07950-0175", "OrgFocus": "Other conservation, environmental or beautification activities", "address": "PO BOX 175     , MORRIS PLAINS, NJ, 07950", "lat": "40.8445", "lon": "-74.4904", "Stew_Gr": 0 }, "geometry": { "type": "Point", "coordinates": [ -74.4904, 40.8445 ] } },
{ "type": "Feature", "properties": { "NAME": "FOOD FOR THE HUNGRY INTERNATIONAL INC", "STREET": "C\/O RITU304 SIP AVE", "CITY": "JERSEY CITY", "STATE": "NJ", "ZIP": "07306-0000", "OrgFocus": "Food Service, Free Food Distribution Programs", "address": "C\/O RITU304 SIP AVE     , JERSEY CITY, NJ, 07306", "lat": "40.73306199662994", "lon": "-74.07432600579892", "Stew_Gr": 0 }, "geometry": { "type": "Point", "coordinates": [ -74.074326005798923, 40.733061996629942 ] } },
{ "type": "Feature", "properties": { "NAME": "LAKEWOOD CEMETERY ASSN", "STREET": "12 MARKET ST", "CITY": "SADDLE BROOK", "STATE": "NJ", "ZIP": "07663-4818", "OrgFocus": "Cemetery or burial activities ", "address": "12 MARKET  ST    , SADDLE BROOK, NJ, 07663", "lat": "40.89505436099036", "lon": "-74.07931163815503", "Stew_Gr": 0 }, "geometry": { "type": "Point", "coordinates": [ -74.079311638155033, 40.895054360990365 ] } },
{ "type": "Feature", "properties": { "NAME": "LAKERIDGE WEST COMMUNITY ASSOCIATION", "STREET": "PO BOX 395", "CITY": "OLD BRIDGE", "STATE": "NJ", "ZIP": "08857-0395", "OrgFocus": "Community Recreational Facilities", "address": "PO BOX 395     , OLD BRIDGE, NJ, 08857", "lat": "40.3910", "lon": "-74.3256", "Stew_Gr": 0 }, "geometry": { "type": "Point", "coordinates": [ -74.3256, 40.391 ] } },
{ "type": "Feature", "properties": { "NAME": "DE BRUCE FLY FISHING CLUB INC", "STREET": "PO BOX 266", "CITY": "RIVER EDGE", "STATE": "NJ", "ZIP": "07661-0266", "OrgFocus": "Hunting or fishing club", "address": "PO BOX 266     , RIVER EDGE, NJ, 07661", "lat": "40.9264", "lon": "-74.0381", "Stew_Gr": 0 }, "geometry": { "type": "Point", "coordinates": [ -74.0381, 40.9264 ] } },
{ "type": "Feature", "properties": { "NAME": "CAMP EDALIA INC", "STREET": "240 TRACY DR", "CITY": "MORGANVILLE", "STATE": "NJ", "ZIP": "07751-1670", "OrgFocus": "Camp", "address": "240 TRACY DR     , MORGANVILLE, NJ, 07751", "lat": "40.327610019747", "lon": "-74.28877297522909", "Stew_Gr": 0 }, "geometry": { "type": "Point", "coordinates": [ -74.288772975229094, 40.327610019746999 ] } },
{ "type": "Feature", "properties": { "NAME": "FINANCIAL COMMUNICATIONS SOCIETY", "STREET": "529 HANFORD PL", "CITY": "WESTFIELD", "STATE": "NJ", "ZIP": "07090-4328", "OrgFocus": "Community Promotion", "address": "529 HANFORD PL     , WESTFIELD, NJ, 07090", "lat": "40.65133299243232", "lon": "-74.36056799924027", "Stew_Gr": 0 }, "geometry": { "type": "Point", "coordinates": [ -74.360567999240274, 40.651332992432316 ] } },
{ "type": "Feature", "properties": { "NAME": "NORTH AMERICAN BUTTERFLY ASSOCIATION INC", "STREET": "4 DELAWARE RD", "CITY": "MORRISTOWN", "STATE": "NJ", "ZIP": "07960-5725", "OrgFocus": "Wildlife Preservation, Protection", "address": "4 DELAWARE RD     , MORRISTOWN, NJ, 07960", "lat": "40.78636425178672", "lon": "-74.43453253527996", "Stew_Gr": 0 }, "geometry": { "type": "Point", "coordinates": [ -74.434532535279956, 40.786364251786722 ] } },
{ "type": "Feature", "properties": { "NAME": "AFRICA SEED INC", "STREET": "686 W 8TH ST", "CITY": "PLAINFIELD", "STATE": "NJ", "ZIP": "07060-2245", "OrgFocus": "Combat community deterioration", "address": "686 W 8TH  ST    , PLAINFIELD, NJ, 07060", "lat": "40.60581090907036", "lon": "-74.42530142194462", "Stew_Gr": 0 }, "geometry": { "type": "Point", "coordinates": [ -74.425301421944624, 40.605810909070364 ] } },
{ "type": "Feature", "properties": { "NAME": "DUKE FARMS FOUNDATION", "STREET": "1112 DUKE PARKWAY WEST", "CITY": "HILLSBOROUGH", "STATE": "NJ", "ZIP": "08844-4129", "OrgFocus": "Horticultural Group", "address": "1112 DUKE PARKWAY WEST     , HILLSBOROUGH, NJ, 08844", "lat": "40.54636101263873", "lon": "-74.62211003276617", "Stew_Gr": 0 }, "geometry": { "type": "Point", "coordinates": [ -74.622110032766173, 40.546361012638727 ] } },
{ "type": "Feature", "properties": { "NAME": "HANDS IN 4 YOUTH INC", "STREET": "256 MACOPIN RD", "CITY": "WEST MILFORD", "STATE": "NJ", "ZIP": "07480-3718", "OrgFocus": "Camp", "address": "256 MACOPIN RD     , WEST MILFORD, NJ, 07480", "lat": "41.02273000917523", "lon": "-74.36351197509259", "Stew_Gr": 0 }, "geometry": { "type": "Point", "coordinates": [ -74.363511975092592, 41.022730009175234 ] } },
{ "type": "Feature", "properties": { "NAME": "WATERFOWL RESEARCH FOUNDATION INC", "STREET": "1249 S RIVER RD UNIT 303", "CITY": "CRANBURY", "STATE": "NJ", "ZIP": "08512-3633", "OrgFocus": "Preservation of natural resources (conservation)", "address": "1249 S RIVER RD UNIT 303     , CRANBURY, NJ, 08512", "lat": "40.33169100076503", "lon": "-74.49340498749791", "Stew_Gr": 0 }, "geometry": { "type": "Point", "coordinates": [ -74.493404987497911, 40.331691000765034 ] } },
{ "type": "Feature", "properties": { "NAME": "HANDS IN 4 YOUTH INC", "STREET": "256 MACOPIN RD", "CITY": "WEST MILFORD", "STATE": "NJ", "ZIP": "07480-3718", "OrgFocus": "Camp", "address": "256 MACOPIN RD     , WEST MILFORD, NJ, 07480", "lat": "41.02273000917523", "lon": "-74.36351197509259", "Stew_Gr": 0 }, "geometry": { "type": "Point", "coordinates": [ -74.363511975092592, 41.022730009175234 ] } },
{ "type": "Feature", "properties": { "NAME": "WOODLAND VALLEY PARK ASSOCIATION", "STREET": "50 PINE ST APT 5D", "CITY": "MONTCLAIR", "STATE": "NJ", "ZIP": "07042-4700", "OrgFocus": "Preservation of natural resources (conservation)", "address": "50 PINE  ST    , MONTCLAIR, NJ, 07042", "lat": "40.80955599938034", "lon": "-74.21034501595905", "Stew_Gr": 0 }, "geometry": { "type": "Point", "coordinates": [ -74.210345015959049, 40.809555999380336 ] } },
{ "type": "Feature", "properties": { "NAME": "NEW PALTZ PEREGRINE FOUNDATION", "STREET": "148 LOWER CREEK RD", "CITY": "STOCKTON", "STATE": "NJ", "ZIP": "08559-1615", "OrgFocus": "Wildlife sanctuary or refuge, Preservation of natural resources (conservation)", "address": "148 LOWER CREEK RD     , STOCKTON, NJ, 08559", "lat": "40.42828899828172", "lon": "-74.97100298058754", "Stew_Gr": 0 }, "geometry": { "type": "Point", "coordinates": [ -74.971002980587542, 40.428288998281715 ] } },
{ "type": "Feature", "properties": { "NAME": "FRIENDS OF ANDERSON PARK A NEW JERSEY NONPROFIT CORPORATION", "STREET": "PO BOX 43712", "CITY": "MONTCLAIR", "STATE": "NJ", "ZIP": "07043-0712", "OrgFocus": "Botanical, Horticultural, and Landscape Services", "address": "PO BOX 43712     , MONTCLAIR, NJ, 07043", "lat": "40.8471", "lon": "-74.2005", "Stew_Gr": 0 }, "geometry": { "type": "Point", "coordinates": [ -74.2005, 40.8471 ] } },
{ "type": "Feature", "properties": { "NAME": "CHEROKEE PRESERVE CLUB INC", "STREET": "21 WOODSIDE AVE", "CITY": "MIDLAND PARK", "STATE": "NJ", "ZIP": "07432-1323", "OrgFocus": "Hunting or fishing club", "address": "21 WOODSIDE AVE     , MIDLAND PARK, NJ, 07432", "lat": "40.99617999559089", "lon": "-74.1350119906175", "Stew_Gr": 0 }, "geometry": { "type": "Point", "coordinates": [ -74.1350119906175, 40.996179995590893 ] } },
{ "type": "Feature", "properties": { "NAME": "SPRUCETON CEMETERY ASSOCIATION", "STREET": "12 SEBRING ROUND", "CITY": "HILLSBOROUGH", "STATE": "NJ", "ZIP": "08844-1812", "OrgFocus": "Cemeteries, Burial Services", "address": "12 SEBRING ROUND     , HILLSBOROUGH, NJ, 08844", "lat": "40.48698599938629", "lon": "-74.65616696265347", "Stew_Gr": 0 }, "geometry": { "type": "Point", "coordinates": [ -74.656166962653472, 40.486985999386292 ] } },
{ "type": "Feature", "properties": { "NAME": "FRIENDS OF LIBERTY STATE PARK INC", "STREET": "PO BOX 3407", "CITY": "JERSEY CITY", "STATE": "NJ", "ZIP": "07303-3407", "OrgFocus": "Single Organization Support", "address": "PO BOX 3407     , JERSEY CITY, NJ, 07303", "lat": "40.7282", "lon": "-74.0784", "Stew_Gr": 0 }, "geometry": { "type": "Point", "coordinates": [ -74.0784, 40.7282 ] } },
{ "type": "Feature", "properties": { "NAME": "BETTER DAYS FOUNDATION", "STREET": "43 LENAPE TRL", "CITY": "DENVILLE", "STATE": "NJ", "ZIP": "07834-2017", "OrgFocus": "Recreational and Sporting Camps", "address": "43 LENAPE TRL     , DENVILLE, NJ, 07834", "lat": "40.88903798297468", "lon": "-74.48929500509486", "Stew_Gr": 0 }, "geometry": { "type": "Point", "coordinates": [ -74.48929500509486, 40.889037982974685 ] } },
{ "type": "Feature", "properties": { "NAME": "JERSEY CITY PARKS COALITION INC", "STREET": "PO BOX 17196", "CITY": "JERSEY CITY", "STATE": "NJ", "ZIP": "07307-7196", "OrgFocus": "Natural Resources Conservation and Protection", "address": "PO BOX 17196     , JERSEY CITY, NJ, 07307", "lat": "40.7522", "lon": "-74.0536", "Stew_Gr": 0 }, "geometry": { "type": "Point", "coordinates": [ -74.0536, 40.7522 ] } },
{ "type": "Feature", "properties": { "NAME": "JERSEY SHORE PARTNERSHIP FOUNDATION INC", "STREET": "331 NEWMAN SPRINGS ROAD", "CITY": "RED BANK", "STATE": "NJ", "ZIP": "07701-5688", "OrgFocus": "Water Resource, Wetlands Conservation and Management", "address": "331 NEWMAN SPRINGS ROAD     , RED BANK, NJ, 07701", "lat": "40.33484100379741", "lon": "-74.09502897136613", "Stew_Gr": 0 }, "geometry": { "type": "Point", "coordinates": [ -74.095028971366133, 40.334841003797408 ] } },
{ "type": "Feature", "properties": { "NAME": "ERNST MEMORIAL CEMETERY CORPORATION", "STREET": "PO BOX 8295", "CITY": "RED BANK", "STATE": "NJ", "ZIP": "07701-8295", "OrgFocus": "Cemeteries, Burial Services", "address": "PO BOX 8295     , RED BANK, NJ, 07701", "lat": "40.3567", "lon": "-74.0751", "Stew_Gr": 0 }, "geometry": { "type": "Point", "coordinates": [ -74.0751, 40.3567 ] } },
{ "type": "Feature", "properties": { "NAME": "18 MILE EMERGENCY SERVICES ASSOCIATION INC", "STREET": "PO BOX 507", "CITY": "SHIP BOTTOM", "STATE": "NJ", "ZIP": "08008-0278", "OrgFocus": "Disaster Preparedness and Relief Services", "address": "PO BOX 507     , SHIP BOTTOM, NJ, 08008", "lat": "39.6379", "lon": "-74.1989", "Stew_Gr": 0 }, "geometry": { "type": "Point", "coordinates": [ -74.1989, 39.6379 ] } },
{ "type": "Feature", "properties": { "NAME": "ANIMAL CLINIC WILDLIFE RESCUE A NJ NON PROFIT CORPORATION", "STREET": "C\/O 29 LAKE SHORE DRIVE", "CITY": "ROCKAWAY", "STATE": "NJ", "ZIP": "07866-0000", "OrgFocus": "Wildlife Sanctuary, Refuge", "address": "C\/O 29 LAKE SHORE DRIVE     , ROCKAWAY, NJ, 07866", "lat": "40.92347599608985", "lon": "-74.51584703033596", "Stew_Gr": 0 }, "geometry": { "type": "Point", "coordinates": [ -74.515847030335962, 40.923475996089849 ] } },
{ "type": "Feature", "properties": { "NAME": "FAIR LAWN COMMUNITY CENTER INC", "STREET": "23 MEADOWVIEW TER", "CITY": "FAIR LAWN", "STATE": "NJ", "ZIP": "07410-5930", "OrgFocus": "Neighborhood Centers, Settlement Houses", "address": "23 MEADOWVIEW TER     , FAIR LAWN, NJ, 07410", "lat": "40.95111498653475", "lon": "-74.10470001124996", "Stew_Gr": 0 }, "geometry": { "type": "Point", "coordinates": [ -74.10470001124996, 40.951114986534748 ] } },
{ "type": "Feature", "properties": { "NAME": "CITY GREEN INC", "STREET": "171 GROVE ST", "CITY": "CLIFTON", "STATE": "NJ", "ZIP": "07013-1621", "OrgFocus": "Botanical Gardens, Arboreta and Botanical Organizations", "address": "171 GROVE  ST    , CLIFTON, NJ, 07013", "lat": "40.87372101884043", "lon": "-74.17129599217851", "Stew_Gr": 0 }, "geometry": { "type": "Point", "coordinates": [ -74.171295992178514, 40.873721018840428 ] } },
{ "type": "Feature", "properties": { "NAME": "MAKING THE PROMISE INC", "STREET": "43OLDLAKESIDERDS", "CITY": "HEWITT", "STATE": "NJ", "ZIP": "07421-0000", "OrgFocus": "Wildlife Preservation, Protection", "address": "43OLDLAKESIDERDS     , HEWITT, NJ, 07421", "lat": "41.18471500000004", "lon": "-74.37755499999997", "Stew_Gr": 0 }, "geometry": { "type": "Point", "coordinates": [ -74.377555, 41.184715 ] } },
{ "type": "Feature", "properties": { "NAME": "CONSERVANCY FOR RIDGEWOOD PUBLIC LANDS INC", "STREET": "PO BOX 123", "CITY": "RIDGEWOOD", "STATE": "NJ", "ZIP": "07451-0123", "OrgFocus": "Land Resources Conservation", "address": "PO BOX 123     , RIDGEWOOD, NJ, 07451", "lat": "40.9792", "lon": "-74.1168", "Stew_Gr": 0 }, "geometry": { "type": "Point", "coordinates": [ -74.1168, 40.9792 ] } },
{ "type": "Feature", "properties": { "NAME": "HUNTERS HELPING THE HUNGRY INC", "STREET": "1109 STATE HIGHWAY 31", "CITY": "LEBANON", "STATE": "NJ", "ZIP": "08833-3034", "OrgFocus": "Nonmonetary Support N.E.C.", "address": "1109 STATE HIGHWAY 31     , LEBANON, NJ, 08833", "lat": "40.58892398168749", "lon": "-74.868621972794", "Stew_Gr": 0 }, "geometry": { "type": "Point", "coordinates": [ -74.868621972794003, 40.588923981687486 ] } },
{ "type": "Feature", "properties": { "NAME": "JOAN WULFF FLY FISHERS INC", "STREET": "PO BOX 893", "CITY": "RAMSEY", "STATE": "NJ", "ZIP": "07446-0893", "OrgFocus": "Fishing, Hunting Clubs", "address": "PO BOX 893     , RAMSEY, NJ, 07446", "lat": "41.0606", "lon": "-74.1445", "Stew_Gr": 0 }, "geometry": { "type": "Point", "coordinates": [ -74.1445, 41.0606 ] } },
{ "type": "Feature", "properties": { "NAME": "NEW JERSEY NENA", "STREET": "203 MAIN ST PMB 247", "CITY": "FLEMINGTON", "STATE": "NJ", "ZIP": "08822-1680", "OrgFocus": "Disaster Preparedness and Relief Services", "address": "203 MAIN  ST    , FLEMINGTON, NJ, 08822", "lat": "40.50267801177813", "lon": "-74.8583940392632", "Stew_Gr": 0 }, "geometry": { "type": "Point", "coordinates": [ -74.858394039263203, 40.50267801177813 ] } },
{ "type": "Feature", "properties": { "NAME": "RUFFIN CEMETERY CORP", "STREET": "PO BOX 8295", "CITY": "RED BANK", "STATE": "NJ", "ZIP": "07701-8295", "OrgFocus": "Cemeteries, Burial Services", "address": "PO BOX 8295     , RED BANK, NJ, 07701", "lat": "40.3567", "lon": "-74.0751", "Stew_Gr": 0 }, "geometry": { "type": "Point", "coordinates": [ -74.0751, 40.3567 ] } },
{ "type": "Feature", "properties": { "NAME": "UNITED BOWHUNTERS OF NEW JERSEY A NEW JERSEY NON PROFIT CORPORATION", "STREET": "PO BOX 57", "CITY": "SPOTSWOOD", "STATE": "NJ", "ZIP": "08884-0057", "OrgFocus": "Fishing, Hunting Clubs", "address": "PO BOX 57     , SPOTSWOOD, NJ, 08884", "lat": "40.3942", "lon": "-74.3900", "Stew_Gr": 0 }, "geometry": { "type": "Point", "coordinates": [ -74.39, 40.3942 ] } },
{ "type": "Feature", "properties": { "NAME": "RUTGERS THE STATE UNIVERSITY OF NJ", "STREET": "42 RIVA AVE", "CITY": "N BRUNSWICK", "STATE": "NJ", "ZIP": "08902-4734", "OrgFocus": "Youth Development - Agricultural", "address": "42 RIVA AVE     , N BRUNSWICK, NJ, 08902", "lat": "40.4101710116538", "lon": "-74.49545000423466", "Stew_Gr": 0 }, "geometry": { "type": "Point", "coordinates": [ -74.495450004234655, 40.410171011653802 ] } },
{ "type": "Feature", "properties": { "NAME": "CHEFS FOR HUMANITY", "STREET": "55 LANE RD STE 300", "CITY": "FAIRFIELD", "STATE": "NJ", "ZIP": "07004-1015", "OrgFocus": "Food Banks, Food Pantries", "address": "55 LANE RD STE 300     , FAIRFIELD, NJ, 07004", "lat": "40.89469698299408", "lon": "-74.27730703459927", "Stew_Gr": 0 }, "geometry": { "type": "Point", "coordinates": [ -74.277307034599275, 40.894696982994077 ] } },
{ "type": "Feature", "properties": { "NAME": "BAY-VIEW ROD AND GUN CLUB INC OF SOUTH AMBOY NEW JERSEY", "STREET": "PO BOX 22", "CITY": "SOUTH AMBOY", "STATE": "NJ", "ZIP": "08879-0022", "OrgFocus": "Fishing, Hunting Clubs", "address": "PO BOX 22     , SOUTH AMBOY, NJ, 08879", "lat": "40.4674", "lon": "-74.2758", "Stew_Gr": 0 }, "geometry": { "type": "Point", "coordinates": [ -74.2758, 40.4674 ] } },
{ "type": "Feature", "properties": { "NAME": "CALDWELL WEST CALDWELL SCOUTING INC", "STREET": "65 MOUNTAIN AVE", "CITY": "CALDWELL", "STATE": "NJ", "ZIP": "07006-5307", "OrgFocus": "Scouting Organizations", "address": "65 MOUNTAIN AVE     , CALDWELL, NJ, 07006", "lat": "40.83980201316987", "lon": "-74.26463703357831", "Stew_Gr": 0 }, "geometry": { "type": "Point", "coordinates": [ -74.26463703357831, 40.839802013169873 ] } },
{ "type": "Feature", "properties": { "NAME": "ST PETERS DEVELOPMENT CORPORATION", "STREET": "505 MAIN ST", "CITY": "SPOTSWOOD", "STATE": "NJ", "ZIP": "08884-1734", "OrgFocus": "Food Service, Free Food Distribution Programs", "address": "505 MAIN  ST    , SPOTSWOOD, NJ, 08884", "lat": "40.39150300453952", "lon": "-74.38934801816444", "Stew_Gr": 0 }, "geometry": { "type": "Point", "coordinates": [ -74.389348018164441, 40.391503004539516 ] } },
{ "type": "Feature", "properties": { "NAME": "NEW HOPE COMMUNITY MINISTRIES A NJ NONPROFIT CORP", "STREET": "331 N 11TH ST", "CITY": "PROSPECT PARK", "STATE": "NJ", "ZIP": "07508-2101", "OrgFocus": "Food Banks, Food Pantries", "address": "331 N 11TH  ST    , PROSPECT PARK, NJ, 07508", "lat": "40.93600798907505", "lon": "-74.17323698949686", "Stew_Gr": 0 }, "geometry": { "type": "Point", "coordinates": [ -74.173236989496857, 40.936007989075051 ] } },
{ "type": "Feature", "properties": { "NAME": "AFRICAN PEOPLE & WILDLIFE FUND INC", "STREET": "PO BOX 624", "CITY": "BERNARDSVILLE", "STATE": "NJ", "ZIP": "07924-0624", "OrgFocus": "Protection of Endangered Species", "address": "PO BOX 624     , BERNARDSVILLE, NJ, 07924", "lat": "40.7262", "lon": "-74.5921", "Stew_Gr": 0 }, "geometry": { "type": "Point", "coordinates": [ -74.5921, 40.7262 ] } },
{ "type": "Feature", "properties": { "NAME": "NATIONAL EDUCATIONAL NETWORK INC", "STREET": "PO BOX 10297", "CITY": "NEW BRUNSWICK", "STATE": "NJ", "ZIP": "08906-0297", "OrgFocus": "Urban, Community Economic Development", "address": "PO BOX 10297     , NEW BRUNSWICK, NJ, 08906", "lat": "40.4894", "lon": "-74.4494", "Stew_Gr": 0 }, "geometry": { "type": "Point", "coordinates": [ -74.4494, 40.4894 ] } },
{ "type": "Feature", "properties": { "NAME": "THE HOLT FAMILY FOUNDATION", "STREET": "CO 401 HACKENSACK AVE 4TH FL", "CITY": "HACKENSACK", "STATE": "NJ", "ZIP": "07601-0000", "OrgFocus": "Disaster Preparedness and Relief Services", "address": "CO 401 HACKENSACK  AVE     , HACKENSACK, NJ, 07601", "lat": "40.90970326462322", "lon": "-74.0333193523484", "Stew_Gr": 0 }, "geometry": { "type": "Point", "coordinates": [ -74.0333193523484, 40.909703264623218 ] } },
{ "type": "Feature", "properties": { "NAME": "PET RES Q TOO INC", "STREET": "24 W RAILROAD AVE", "CITY": "TENAFLY", "STATE": "NJ", "ZIP": "07670-1735", "OrgFocus": "Wildlife Preservation, Protection", "address": "24 W RAILROAD AVE     , TENAFLY, NJ, 07670", "lat": "40.92695000158946", "lon": "-73.96518096978086", "Stew_Gr": 0 }, "geometry": { "type": "Point", "coordinates": [ -73.96518096978086, 40.926950001589461 ] } },
{ "type": "Feature", "properties": { "NAME": "CENTRAL JERSEY CREMATORY ASSOCIATESA NEW JERSEY NONPROFIT CORPORATION", "STREET": "PO BOX 191", "CITY": "METUCHEN", "STATE": "NJ", "ZIP": "08840-0191", "OrgFocus": "Cemeteries, Burial Services", "address": "PO BOX 191     , METUCHEN, NJ, 08840", "lat": "40.5434", "lon": "-74.3492", "Stew_Gr": 0 }, "geometry": { "type": "Point", "coordinates": [ -74.3492, 40.5434 ] } },
{ "type": "Feature", "properties": { "NAME": "FRANKLIN RESIDENTS AGAINST IMPROPERDEVELOPMENT", "STREET": "PO BOX 6072", "CITY": "SOMERSET", "STATE": "NJ", "ZIP": "08875-6072", "OrgFocus": "Environmental Education and Outdoor Survival Programs", "address": "PO BOX 6072     , SOMERSET, NJ, 08875", "lat": "40.5014", "lon": "-74.5814", "Stew_Gr": 0 }, "geometry": { "type": "Point", "coordinates": [ -74.5814, 40.5014 ] } },
{ "type": "Feature", "properties": { "NAME": "BEAR CREEK SPORTSMEN A NJ NONPROFIT CORPORATION", "STREET": "215 GILES AVE", "CITY": "MIDDLESEX", "STATE": "NJ", "ZIP": "08846-1904", "OrgFocus": "Recreational and Sporting Camps", "address": "215 GILES AVE     , MIDDLESEX, NJ, 08846", "lat": "40.57247101821585", "lon": "-74.50701401313162", "Stew_Gr": 0 }, "geometry": { "type": "Point", "coordinates": [ -74.507014013131624, 40.57247101821585 ] } },
{ "type": "Feature", "properties": { "NAME": "FRIENDS OF THE EAST BRUNSWICKENVIRONMENTAL COMMISSION A NJ NONPR", "STREET": "9 CAMELOT DR", "CITY": "E BRUNSWICK", "STATE": "NJ", "ZIP": "08816-3621", "OrgFocus": "Environmental Education and Outdoor Survival Programs", "address": "9 CAMELOT DR     , E BRUNSWICK, NJ, 08816", "lat": "40.43149298077054", "lon": "-74.39597500227204", "Stew_Gr": 0 }, "geometry": { "type": "Point", "coordinates": [ -74.395975002272039, 40.431492980770543 ] } },
{ "type": "Feature", "properties": { "NAME": "RUTGERS THE STATE UNIVERSITY OF NJ", "STREET": "42 RIVA AVE", "CITY": "N BRUNSWICK", "STATE": "NJ", "ZIP": "08902-4734", "OrgFocus": "Youth Development - Agricultural", "address": "42 RIVA AVE     , N BRUNSWICK, NJ, 08902", "lat": "40.4101710116538", "lon": "-74.49545000423466", "Stew_Gr": 0 }, "geometry": { "type": "Point", "coordinates": [ -74.495450004234655, 40.410171011653802 ] } },
{ "type": "Feature", "properties": { "NAME": "FILIPINO AMERICAN COMMUNITY ANDDEVELOPMENT CENTER OF OCEAN COUNTY", "STREET": "651 ROUTE 37 WEST", "CITY": "TOMS RIVER", "STATE": "NJ", "ZIP": "08755-8060", "OrgFocus": "Neighborhood Centers, Settlement Houses", "address": "651 ROUTE 37 WEST     , TOMS RIVER, NJ, 08755", "lat": "39.96866100931945", "lon": "-74.23236301831545", "Stew_Gr": 0 }, "geometry": { "type": "Point", "coordinates": [ -74.232363018315453, 39.968661009319447 ] } },
{ "type": "Feature", "properties": { "NAME": "BERKELEY HEIGHTS GUN CLUB A NJNONPROFIT CORPORATION", "STREET": "110 PILL HILL RD", "CITY": "BERNARDSVILLE", "STATE": "NJ", "ZIP": "07924-2804", "OrgFocus": "Fishing, Hunting Clubs", "address": "110 PILL HILL RD     , BERNARDSVILLE, NJ, 07924", "lat": "40.7038179974555", "lon": "-74.57781896673973", "Stew_Gr": 0 }, "geometry": { "type": "Point", "coordinates": [ -74.577818966739727, 40.703817997455502 ] } },
{ "type": "Feature", "properties": { "NAME": "NEW JERSEY AGRICULTURAL EDUCATIONASSOCIATION", "STREET": "28 PONDVIEW DR", "CITY": "ALLENTOWN", "STATE": "NJ", "ZIP": "08501-1601", "OrgFocus": "Professional Societies, Associations", "address": "28 PONDVIEW DR     , ALLENTOWN, NJ, 08501", "lat": "40.18293501817757", "lon": "-74.58439398304763", "Stew_Gr": 0 }, "geometry": { "type": "Point", "coordinates": [ -74.584393983047633, 40.182935018177574 ] } },
{ "type": "Feature", "properties": { "NAME": "BRIDGES TO SUCCESS INC", "STREET": "273 E MAIN ST", "CITY": "DENVILLE", "STATE": "NJ", "ZIP": "07834-2642", "OrgFocus": "Food Service, Free Food Distribution Programs", "address": "273 E MAIN  ST    , DENVILLE, NJ, 07834", "lat": "40.8834981501893", "lon": "-74.47973462138229", "Stew_Gr": 0 }, "geometry": { "type": "Point", "coordinates": [ -74.479734621382292, 40.883498150189297 ] } },
{ "type": "Feature", "properties": { "NAME": "NEW DESTINY FAMILY SUCCESS CENTERS INC", "STREET": "79 ELLISON ST", "CITY": "PATERSON", "STATE": "NJ", "ZIP": "07505-1213", "OrgFocus": "Neighborhood Centers, Settlement Houses", "address": "79 ELLISON  ST    , PATERSON, NJ, 07505", "lat": "40.91763800052817", "lon": "-74.17428699050764", "Stew_Gr": 0 }, "geometry": { "type": "Point", "coordinates": [ -74.174286990507639, 40.917638000528171 ] } },
{ "type": "Feature", "properties": { "NAME": "ST GREGORYS PANTRY INC", "STREET": "PO BOX 763", "CITY": "MANTOLOKING", "STATE": "NJ", "ZIP": "08738-0763", "OrgFocus": "Food Banks, Food Pantries", "address": "PO BOX 763     , MANTOLOKING, NJ, 08738", "lat": "40.0247", "lon": "-74.0584", "Stew_Gr": 0 }, "geometry": { "type": "Point", "coordinates": [ -74.0584, 40.0247 ] } },
{ "type": "Feature", "properties": { "NAME": "BAY HEAD YACHT CLUB", "STREET": "111 METCALFE ST", "CITY": "BAY HEAD", "STATE": "NJ", "ZIP": "08742-5040", "OrgFocus": "Country club", "address": "111 METCALFE  ST    , BAY HEAD, NJ, 08742", "lat": "40.06730130104621", "lon": "-74.04826667606748", "Stew_Gr": 0 }, "geometry": { "type": "Point", "coordinates": [ -74.048266676067485, 40.067301301046214 ] } },
{ "type": "Feature", "properties": { "NAME": "COLESTOWN CEMETERY COMPANY INC", "STREET": "PO BOX 8295", "CITY": "RED BANK", "STATE": "NJ", "ZIP": "07701-8295", "OrgFocus": "Cemetery or burial activities ", "address": "PO BOX 8295     , RED BANK, NJ, 07701", "lat": "40.3567", "lon": "-74.0751", "Stew_Gr": 0 }, "geometry": { "type": "Point", "coordinates": [ -74.0751, 40.3567 ] } },
{ "type": "Feature", "properties": { "NAME": "COLONIAL MEMORIAL PARK ASSOCIATION", "STREET": "PO BOX 8295", "CITY": "RED BANK", "STATE": "NJ", "ZIP": "07701-8295", "OrgFocus": "Cemeteries, Burial Services", "address": "PO BOX 8295     , RED BANK, NJ, 07701", "lat": "40.3567", "lon": "-74.0751", "Stew_Gr": 0 }, "geometry": { "type": "Point", "coordinates": [ -74.0751, 40.3567 ] } },
{ "type": "Feature", "properties": { "NAME": "DEAL GOLF AND COUNTRY CLUB", "STREET": "1 GOLF LN", "CITY": "DEAL", "STATE": "NJ", "ZIP": "07723-1459", "OrgFocus": "Country club", "address": "1 GOLF LN     , DEAL, NJ, 07723", "lat": "40.24704400461496", "lon": "-74.00707003381433", "Stew_Gr": 0 }, "geometry": { "type": "Point", "coordinates": [ -74.00707003381433, 40.247044004614963 ] } },
{ "type": "Feature", "properties": { "NAME": "FAIR VIEW CEMETERY", "STREET": "456 HIGHWAY 35", "CITY": "RED BANK", "STATE": "NJ", "ZIP": "07701-5038", "OrgFocus": "Cemetery or burial activities ", "address": "456 HIGHWAY 35     , RED BANK, NJ, 07701", "lat": "40.37591501156609", "lon": "-74.09004802540413", "Stew_Gr": 0 }, "geometry": { "type": "Point", "coordinates": [ -74.09004802540413, 40.375915011566093 ] } },
{ "type": "Feature", "properties": { "NAME": "GREENWOOD CEMETARY ASSOCIATION", "STREET": "1009 CEDAR LN", "CITY": "BRIELLE", "STATE": "NJ", "ZIP": "08730-1105", "OrgFocus": "Cemetery or burial activities ", "address": "1009 CEDAR LN     , BRIELLE, NJ, 08730", "lat": "40.09918601722418", "lon": "-74.08016299553223", "Stew_Gr": 0 }, "geometry": { "type": "Point", "coordinates": [ -74.080162995532234, 40.099186017224184 ] } },
{ "type": "Feature", "properties": { "NAME": "HARLEIGH CEMETERY ASSOCIATION", "STREET": "PO BOX 8295", "CITY": "RED BANK", "STATE": "NJ", "ZIP": "07701-8295", "OrgFocus": "Cemetery or burial activities ", "address": "PO BOX 8295     , RED BANK, NJ, 07701", "lat": "40.3567", "lon": "-74.0751", "Stew_Gr": 0 }, "geometry": { "type": "Point", "coordinates": [ -74.0751, 40.3567 ] } },
{ "type": "Feature", "properties": { "NAME": "MANASQUAN RIVER GOLF CLUB", "STREET": "843 RIVERVIEW DR", "CITY": "BRIELLE", "STATE": "NJ", "ZIP": "08730-1641", "OrgFocus": "Country club", "address": "843 RIVERVIEW DR     , BRIELLE, NJ, 08730", "lat": "40.1041059848406", "lon": "-74.06609799436578", "Stew_Gr": 0 }, "geometry": { "type": "Point", "coordinates": [ -74.066097994365776, 40.104105984840601 ] } },
{ "type": "Feature", "properties": { "NAME": "OCEAN BEACH CLUB OF ELBERON NEW JER", "STREET": "PO BOX 2275", "CITY": "ELBERON", "STATE": "NJ", "ZIP": "07740-2275", "OrgFocus": "Country club", "address": "PO BOX 2275     , ELBERON, NJ, 07740", "lat": "40.2943", "lon": "-73.9935", "Stew_Gr": 0 }, "geometry": { "type": "Point", "coordinates": [ -73.9935, 40.2943 ] } },
{ "type": "Feature", "properties": { "NAME": "WOODLAWN CEMETERY ASSOC", "STREET": "PO BOX 1244", "CITY": "LAKEWOOD", "STATE": "NJ", "ZIP": "08701-1008", "OrgFocus": "Cemetery or burial activities ", "address": "PO BOX 1244     , LAKEWOOD, NJ, 08701", "lat": "40.0721", "lon": "-74.2050", "Stew_Gr": 0 }, "geometry": { "type": "Point", "coordinates": [ -74.205, 40.0721 ] } },
{ "type": "Feature", "properties": { "NAME": "MANSFIELD CEMETERY CO", "STREET": "109 SAINT LAWRENCE AVE", "CITY": "SEASIDE HGTS", "STATE": "NJ", "ZIP": "08751-2218", "OrgFocus": "Cemetery or burial activities ", "address": "109 SAINT LAWRENCE AVE     , SEASIDE HGTS, NJ, 08751", "lat": "39.94439498053137", "lon": "-74.09013896905358", "Stew_Gr": 0 }, "geometry": { "type": "Point", "coordinates": [ -74.090138969053584, 39.944394980531371 ] } },
{ "type": "Feature", "properties": { "NAME": "OCEAN BEACH AND YACHT CLUB UNIT NO 2", "STREET": "PO BOX 92", "CITY": "LAVALLETTE", "STATE": "NJ", "ZIP": "08735-0092", "OrgFocus": "Country club", "address": "PO BOX 92     , LAVALLETTE, NJ, 08735", "lat": "39.9809", "lon": "-74.0717", "Stew_Gr": 0 }, "geometry": { "type": "Point", "coordinates": [ -74.0717, 39.9809 ] } },
{ "type": "Feature", "properties": { "NAME": "HOLMDEL CEMETERY COMPANY", "STREET": "900 HOLMDEL RD", "CITY": "HOLMDEL", "STATE": "NJ", "ZIP": "07733-2139", "OrgFocus": "Cemetery or burial activities ", "address": "900 HOLMDEL RD     , HOLMDEL, NJ, 07733", "lat": "40.36577664930506", "lon": "-74.188989696683", "Stew_Gr": 0 }, "geometry": { "type": "Point", "coordinates": [ -74.188989696682995, 40.365776649305062 ] } },
{ "type": "Feature", "properties": { "NAME": "THE YOUNG MENS CHRISTIAN ASSOC OF GREATER MONMOUTH COUNTY", "STREET": "170 PATTERSON AVE", "CITY": "SHREWSBURY", "STATE": "NJ", "ZIP": "07702-4167", "OrgFocus": "YMCA, YWCA, YMCA, etc.", "address": "170 PATTERSON AVE     , SHREWSBURY, NJ, 07702", "lat": "40.33399909077614", "lon": "-74.0716160855302", "Stew_Gr": 0 }, "geometry": { "type": "Point", "coordinates": [ -74.071616085530195, 40.333999090776139 ] } },
{ "type": "Feature", "properties": { "NAME": "MONMOUTH MEMORIAL PARK CEMETARY ASSOC", "STREET": "PO BOX 224", "CITY": "NEPTUNE", "STATE": "NJ", "ZIP": "07754-0224", "OrgFocus": "Cemetery or burial activities ", "address": "PO BOX 224     , NEPTUNE, NJ, 07754", "lat": "40.2017", "lon": "-74.0306", "Stew_Gr": 0 }, "geometry": { "type": "Point", "coordinates": [ -74.0306, 40.2017 ] } },
{ "type": "Feature", "properties": { "NAME": "HAVEN BEACH ASSOCIATION", "STREET": "1 W KENTUCKY AVE", "CITY": "LONG BCH TWP", "STATE": "NJ", "ZIP": "08008-3075", "OrgFocus": "Community Center, Community Recreational Facilities", "address": "1 W KENTUCKY AVE     , LONG BCH TWP, NJ, 08008", "lat": "39.59487761406513", "lon": "-74.21719033384639", "Stew_Gr": 0 }, "geometry": { "type": "Point", "coordinates": [ -74.217190333846389, 39.594877614065133 ] } },
{ "type": "Feature", "properties": { "NAME": "GOOD LUCK IMPROVEMENT ASSOCIATION", "STREET": "PO BOX 76", "CITY": "FORKED RIVER", "STATE": "NJ", "ZIP": "08731-0076", "OrgFocus": "Cemetery or burial activities ", "address": "PO BOX 76     , FORKED RIVER, NJ, 08731", "lat": "39.8578", "lon": "-74.2665", "Stew_Gr": 0 }, "geometry": { "type": "Point", "coordinates": [ -74.2665, 39.8578 ] } },
{ "type": "Feature", "properties": { "NAME": "HARBOURTON CEMETERY ASSOCIATION", "STREET": "1516 HARBOURTON ROCKTOWN RD", "CITY": "LAMBERTVILLE", "STATE": "NJ", "ZIP": "08530-3001", "OrgFocus": "Cemetery or burial activities ", "address": "1516 HARBOURTON ROCKTOWN RD     , LAMBERTVILLE, NJ, 08530", "lat": "40.35130100806771", "lon": "-74.85260801150119", "Stew_Gr": 0 }, "geometry": { "type": "Point", "coordinates": [ -74.852608011501189, 40.351301008067708 ] } },
{ "type": "Feature", "properties": { "NAME": "SUNSET MEMORIAL PARK", "STREET": "PO BOX 8295", "CITY": "RED BANK", "STATE": "NJ", "ZIP": "07701-8295", "OrgFocus": "Cemetery or burial activities ", "address": "PO BOX 8295     , RED BANK, NJ, 07701", "lat": "40.3567", "lon": "-74.0751", "Stew_Gr": 0 }, "geometry": { "type": "Point", "coordinates": [ -74.0751, 40.3567 ] } },
{ "type": "Feature", "properties": { "NAME": "NEW JERSEY BLIND CITIZENS ASSOCIATI ON INC", "STREET": "18 BURLINGTON AVE", "CITY": "LEONARDO", "STATE": "NJ", "ZIP": "07737-1615", "OrgFocus": "Camp", "address": "18 BURLINGTON AVE     , LEONARDO, NJ, 07737", "lat": "40.41970771390967", "lon": "-74.05228185770081", "Stew_Gr": 0 }, "geometry": { "type": "Point", "coordinates": [ -74.052281857700805, 40.419707713909673 ] } },
{ "type": "Feature", "properties": { "NAME": "GIRL SCOUTS OF THE JERSEY SHORE INC", "STREET": "242 ADELPHIA RD", "CITY": "FARMINGDALE", "STATE": "NJ", "ZIP": "07727-3525", "OrgFocus": "Girl Scouts of the U.S.A.", "address": "242 ADELPHIA RD     , FARMINGDALE, NJ, 07727", "lat": "40.20406399397368", "lon": "-74.19612603923126", "Stew_Gr": 0 }, "geometry": { "type": "Point", "coordinates": [ -74.19612603923126, 40.204063993973676 ] } },
{ "type": "Feature", "properties": { "NAME": "ATLANTIC VIEW CEMETERY ATLANTIC VIEW CEMETERY ASSN INC", "STREET": "600 COUNTY ROAD 520", "CITY": "MARLBORO", "STATE": "NJ", "ZIP": "07746-1065", "OrgFocus": "Cemetery or burial activities ", "address": "600 COUNTY ROAD 520     , MARLBORO, NJ, 07746", "lat": "40.33966298696569", "lon": "-74.22510697237453", "Stew_Gr": 0 }, "geometry": { "type": "Point", "coordinates": [ -74.225106972374533, 40.339662986965692 ] } },
{ "type": "Feature", "properties": { "NAME": "FOUNTAIN LAWN MEMORIAL PARK ASSOCIATION", "STREET": "PO BOX 8295", "CITY": "RED BANK", "STATE": "NJ", "ZIP": "07701-8295", "OrgFocus": "Cemeteries, Burial Services", "address": "PO BOX 8295     , RED BANK, NJ, 07701", "lat": "40.3567", "lon": "-74.0751", "Stew_Gr": 0 }, "geometry": { "type": "Point", "coordinates": [ -74.0751, 40.3567 ] } },
{ "type": "Feature", "properties": { "NAME": "PINE LAKE PARK TAX PAYERS IMPROVMENT ASSOCIATION INC", "STREET": "MORNINGSIDE STREET AND EIGHTH AVE", "CITY": "TOMS RIVER", "STATE": "NJ", "ZIP": "08757-0000", "OrgFocus": "Combat community deterioration", "address": "MORNINGSIDE  STREET   , TOMS RIVER, NJ, 08757", "lat": "40.00165359458298", "lon": "-74.24126321186448", "Stew_Gr": 0 }, "geometry": { "type": "Point", "coordinates": [ -74.241263211864478, 40.001653594582976 ] } },
{ "type": "Feature", "properties": { "NAME": "TUCKERTON OLD HOME SOCIETY", "STREET": "PO BOX 1240", "CITY": "TUCKERTON", "STATE": "NJ", "ZIP": "08087-5240", "OrgFocus": "Cemetery or burial activities ", "address": "PO BOX 1240     , TUCKERTON, NJ, 08087", "lat": "39.6215", "lon": "-74.3863", "Stew_Gr": 0 }, "geometry": { "type": "Point", "coordinates": [ -74.3863, 39.6215 ] } },
{ "type": "Feature", "properties": { "NAME": "SPRING LAKE MEMORIAL COMMUNITY HOUSE", "STREET": "THIRD MADISON AVENUE", "CITY": "SPRING LAKE", "STATE": "NJ", "ZIP": "07762-0000", "OrgFocus": "YMCA, YWCA, YMCA, etc.", "address": "THIRD MADISON  AVENUE  , SPRING LAKE, NJ, 07762", "lat": "40.15545824490042", "lon": "-74.02728634051677", "Stew_Gr": 0 }, "geometry": { "type": "Point", "coordinates": [ -74.027286340516767, 40.155458244900423 ] } },
{ "type": "Feature", "properties": { "NAME": "NEW JERSEY STATE GRANGE PATRONS OF HUSBANDRY", "STREET": "PO BOX 407", "CITY": "CRANBURY", "STATE": "NJ", "ZIP": "08512-0000", "OrgFocus": "Agricultural Group", "address": "PO BOX 407     , CRANBURY, NJ, 08512", "lat": "40.3247", "lon": "-74.5332", "Stew_Gr": 0 }, "geometry": { "type": "Point", "coordinates": [ -74.5332, 40.3247 ] } },
{ "type": "Feature", "properties": { "NAME": "HAMILTON CEMETERY ASSOCIATION INC", "STREET": "3404 STATE HWY 33", "CITY": "NEPTUNE", "STATE": "NJ", "ZIP": "07753-3443", "OrgFocus": "Cemetery or burial activities ", "address": "3404 STATE HWY 33     , NEPTUNE, NJ, 07753", "lat": "40.2086429857689", "lon": "-74.07428996361526", "Stew_Gr": 0 }, "geometry": { "type": "Point", "coordinates": [ -74.074289963615257, 40.208642985768904 ] } },
{ "type": "Feature", "properties": { "NAME": "OCEAN COUNTY WOMENS ASSOCIATION INC", "STREET": "877B WINCHESTER CT", "CITY": "MANCHESTER", "STATE": "NJ", "ZIP": "08759-5360", "OrgFocus": "YMCA, YWCA, YMCA, etc.", "address": "877B WINCHESTER CT     , MANCHESTER, NJ, 08759", "lat": "40.00181600451555", "lon": "-74.28081796238237", "Stew_Gr": 0 }, "geometry": { "type": "Point", "coordinates": [ -74.280817962382372, 40.001816004515547 ] } },
{ "type": "Feature", "properties": { "NAME": "SKY FARM INC", "STREET": "177 ALLEN RD", "CITY": "BASKING RIDGE", "STATE": "NJ", "ZIP": "07920-2916", "OrgFocus": "Country club", "address": "177 ALLEN RD     , BASKING RIDGE, NJ, 07920", "lat": "40.65197198682091", "lon": "-74.58767600105502", "Stew_Gr": 0 }, "geometry": { "type": "Point", "coordinates": [ -74.587676001055016, 40.651971986820911 ] } },
{ "type": "Feature", "properties": { "NAME": "ARCOLA COUNTRY CLUB", "STREET": "RT 4 PARAMUS RD JUNCTION", "CITY": "PARAMUS", "STATE": "NJ", "ZIP": "07652-0000", "OrgFocus": "Country club", "address": "RT 4 PARAMUS RD JUNCTION     , PARAMUS, NJ, 07652", "lat": "40.92716936199941", "lon": "-74.09001480882604", "Stew_Gr": 0 }, "geometry": { "type": "Point", "coordinates": [ -74.090014808826041, 40.927169361999411 ] } },
{ "type": "Feature", "properties": { "NAME": "ARLINGTON CEMETERY ASSOCIATION", "STREET": "748 SCHUYLER AVE", "CITY": "KEARNY", "STATE": "NJ", "ZIP": "07032-4224", "OrgFocus": "Cemetery or burial activities ", "address": "748 SCHUYLER AVE     , KEARNY, NJ, 07032", "lat": "40.77279204142184", "lon": "-74.13371098527321", "Stew_Gr": 0 }, "geometry": { "type": "Point", "coordinates": [ -74.133710985273211, 40.772792041421837 ] } },
{ "type": "Feature", "properties": { "NAME": "BALTUSROL GOLF CLUB", "STREET": "201 SHUNPIKE RD", "CITY": "SPRINGFIELD", "STATE": "NJ", "ZIP": "07081-2159", "OrgFocus": "Country club", "address": "201 SHUNPIKE RD     , SPRINGFIELD, NJ, 07081", "lat": "40.70487998458785", "lon": "-74.32802601453291", "Stew_Gr": 0 }, "geometry": { "type": "Point", "coordinates": [ -74.328026014532909, 40.704879984587848 ] } },
{ "type": "Feature", "properties": { "NAME": "BAY VIEW NEW YORK CEMETERY ASSOCIATION", "STREET": "321 GARFIELD AVE", "CITY": "JERSEY CITY", "STATE": "NJ", "ZIP": "07305-4054", "OrgFocus": "Cemetery or burial activities ", "address": "321 GARFIELD AVE     , JERSEY CITY, NJ, 07305", "lat": "40.6964210098127", "lon": "-74.08550000474114", "Stew_Gr": 0 }, "geometry": { "type": "Point", "coordinates": [ -74.085500004741135, 40.696421009812696 ] } },
{ "type": "Feature", "properties": { "NAME": "FIDELITY CEMETERY ASSOCIATION OF BERGEN COUNTY NEW JERSEY", "STREET": "PO BOX 329", "CITY": "WESTWOOD", "STATE": "NJ", "ZIP": "07675-0329", "OrgFocus": "Cemetery or burial activities ", "address": "PO BOX 329     , WESTWOOD, NJ, 07675", "lat": "41.0099", "lon": "-74.0071", "Stew_Gr": 0 }, "geometry": { "type": "Point", "coordinates": [ -74.0071, 41.0099 ] } },
{ "type": "Feature", "properties": { "NAME": "BLOOMFIELD CEMETERY COMPANY", "STREET": "383 BELLEVILLE AVE", "CITY": "BLOOMFIELD", "STATE": "NJ", "ZIP": "07003-2603", "OrgFocus": "Cemetery or burial activities ", "address": "383 BELLEVILLE AVE     , BLOOMFIELD, NJ, 07003", "lat": "40.80081698522011", "lon": "-74.19889600677364", "Stew_Gr": 0 }, "geometry": { "type": "Point", "coordinates": [ -74.198896006773637, 40.800816985220109 ] } },
{ "type": "Feature", "properties": { "NAME": "CANOE BROOK COUNTRY CLUB", "STREET": "1108 MORRIS TPKE", "CITY": "SUMMIT", "STATE": "NJ", "ZIP": "07901-3700", "OrgFocus": "Country club", "address": "1108 MORRIS TPKE     , SUMMIT, NJ, 07901", "lat": "40.73314563462326", "lon": "-74.35444004780362", "Stew_Gr": 0 }, "geometry": { "type": "Point", "coordinates": [ -74.354440047803621, 40.733145634623263 ] } },
{ "type": "Feature", "properties": { "NAME": "CEDAR LAWN CEMETERY", "STREET": "200 MCLEAN BLVD", "CITY": "PATERSON", "STATE": "NJ", "ZIP": "07504-0000", "OrgFocus": "Cemetery or burial activities ", "address": "200 MCLEAN BLVD     , PATERSON, NJ, 07504", "lat": "40.90928157495976", "lon": "-74.13423584908543", "Stew_Gr": 0 }, "geometry": { "type": "Point", "coordinates": [ -74.134235849085428, 40.909281574959756 ] } },
{ "type": "Feature", "properties": { "NAME": "CEDAR PARK CEMETERY", "STREET": "PO BOX 329", "CITY": "WESTWOOD", "STATE": "NJ", "ZIP": "07675-0329", "OrgFocus": "Cemetery or burial activities ", "address": "PO BOX 329     , WESTWOOD, NJ, 07675", "lat": "41.0099", "lon": "-74.0071", "Stew_Gr": 0 }, "geometry": { "type": "Point", "coordinates": [ -74.0071, 41.0099 ] } },
{ "type": "Feature", "properties": { "NAME": "MIDDLESEX COUNTY REGIONAL CHAMBER OF COMMERCE INC", "STREET": "109 CHURCH ST", "CITY": "NEW BRUNSWICK", "STATE": "NJ", "ZIP": "08901-4012", "OrgFocus": "Area development, redevelopment of renewal", "address": "109 CHURCH  ST    , NEW BRUNSWICK, NJ, 08901", "lat": "40.49600426309861", "lon": "-74.44392698934404", "Stew_Gr": 0 }, "geometry": { "type": "Point", "coordinates": [ -74.443926989344035, 40.496004263098605 ] } },
{ "type": "Feature", "properties": { "NAME": "CLINTON CEMETERY ASSOCIATION", "STREET": "195 UNION AVE", "CITY": "IRVINGTON", "STATE": "NJ", "ZIP": "07111-3152", "OrgFocus": "Cemetery or burial activities ", "address": "195 UNION AVE     , IRVINGTON, NJ, 07111", "lat": "40.72114137388056", "lon": "-74.23395890056769", "Stew_Gr": 0 }, "geometry": { "type": "Point", "coordinates": [ -74.233958900567686, 40.721141373880563 ] } },
{ "type": "Feature", "properties": { "NAME": "EAST RIDGELAWN CEMETERY", "STREET": "255 MAIN AVE", "CITY": "CLIFTON", "STATE": "NJ", "ZIP": "07014-1317", "OrgFocus": "Cemetery or burial activities ", "address": "255 MAIN AVE     , CLIFTON, NJ, 07014", "lat": "40.83509205560227", "lon": "-74.13806421209615", "Stew_Gr": 0 }, "geometry": { "type": "Point", "coordinates": [ -74.138064212096154, 40.835092055602274 ] } },
{ "type": "Feature", "properties": { "NAME": "ECHO LAKE COUNTRY CLUB", "STREET": "515 SPRINGFIELD AVE", "CITY": "WESTFIELD", "STATE": "NJ", "ZIP": "07090-1009", "OrgFocus": "Country club", "address": "515 SPRINGFIELD AVE     , WESTFIELD, NJ, 07090", "lat": "40.67644001947551", "lon": "-74.3373910311318", "Stew_Gr": 0 }, "geometry": { "type": "Point", "coordinates": [ -74.337391031131801, 40.676440019475507 ] } },
{ "type": "Feature", "properties": { "NAME": "ENGLEWOOD CEMETERY ASSOCIATION", "STREET": "PO BOX 89", "CITY": "ENGLEWOOD", "STATE": "NJ", "ZIP": "07631-0089", "OrgFocus": "Cemetery or burial activities ", "address": "PO BOX 89     , ENGLEWOOD, NJ, 07631", "lat": "40.8896", "lon": "-73.9727", "Stew_Gr": 0 }, "geometry": { "type": "Point", "coordinates": [ -73.9727, 40.8896 ] } },
{ "type": "Feature", "properties": { "NAME": "ENGLEWOOD FIELD CLUB", "STREET": "341 ENGLE ST", "CITY": "ENGLEWOOD", "STATE": "NJ", "ZIP": "07631-1823", "OrgFocus": "Country club", "address": "341 ENGLE  ST    , ENGLEWOOD, NJ, 07631", "lat": "40.9034929940959", "lon": "-73.9661909891135", "Stew_Gr": 0 }, "geometry": { "type": "Point", "coordinates": [ -73.9661909891135, 40.903492994095899 ] } },
{ "type": "Feature", "properties": { "NAME": "ESSEX COUNTY COUNTRY CLUB", "STREET": "350 MOUNT PLEASANT AVE", "CITY": "WEST ORANGE", "STATE": "NJ", "ZIP": "07052-2737", "OrgFocus": "Country club", "address": "350 MOUNT PLEASANT AVE     , WEST ORANGE, NJ, 07052", "lat": "40.78936397537966", "lon": "-74.25958779632813", "Stew_Gr": 0 }, "geometry": { "type": "Point", "coordinates": [ -74.259587796328134, 40.789363975379658 ] } },
{ "type": "Feature", "properties": { "NAME": "ESSEX FELLS COUNTRY CLUB", "STREET": "219 DEVON RD", "CITY": "ESSEX FELLS", "STATE": "NJ", "ZIP": "07021-1501", "OrgFocus": "Country club", "address": "219 DEVON RD     , ESSEX FELLS, NJ, 07021", "lat": "40.81848100797203", "lon": "-74.27747903125243", "Stew_Gr": 0 }, "geometry": { "type": "Point", "coordinates": [ -74.277479031252426, 40.818481007972025 ] } },
{ "type": "Feature", "properties": { "NAME": "EVERGREEN CEMETERY", "STREET": "1137 N BROAD ST", "CITY": "HILLSIDE", "STATE": "NJ", "ZIP": "07205-2434", "OrgFocus": "Cemetery or burial activities ", "address": "1137 N BROAD  ST    , HILLSIDE, NJ, 07205", "lat": "40.69020100901378", "lon": "-74.21493603578533", "Stew_Gr": 0 }, "geometry": { "type": "Point", "coordinates": [ -74.214936035785328, 40.690201009013776 ] } },
{ "type": "Feature", "properties": { "NAME": "EVERGREEN CEMETERY ASSOCIATION INC", "STREET": "65 MARTIN LUTHER KING AVE", "CITY": "MORRISTOWN", "STATE": "NJ", "ZIP": "07960-4355", "OrgFocus": "Cemetery or burial activities ", "address": "65 MARTIN LUTHER KING AVE     , MORRISTOWN, NJ, 07960", "lat": "40.80484201703447", "lon": "-74.47404597628585", "Stew_Gr": 0 }, "geometry": { "type": "Point", "coordinates": [ -74.474045976285851, 40.804842017034474 ] } },
{ "type": "Feature", "properties": { "NAME": "FAIR MOUNT CEMETERY", "STREET": "233 HILLSIDE AVE", "CITY": "CHATHAM", "STATE": "NJ", "ZIP": "07928-1732", "OrgFocus": "Cemetery or burial activities ", "address": "233 HILLSIDE AVE     , CHATHAM, NJ, 07928", "lat": "40.72784199878939", "lon": "-74.38891601487478", "Stew_Gr": 0 }, "geometry": { "type": "Point", "coordinates": [ -74.388916014874781, 40.727841998789387 ] } },
{ "type": "Feature", "properties": { "NAME": "FAIRMOUNT CEMETERY COMPANY", "STREET": "128 PETTICOAT LN", "CITY": "LEBANON", "STATE": "NJ", "ZIP": "08833-4108", "OrgFocus": "Cemetery or burial activities ", "address": "128 PETTICOAT LN     , LEBANON, NJ, 08833", "lat": "40.67454700855285", "lon": "-74.85254497958931", "Stew_Gr": 0 }, "geometry": { "type": "Point", "coordinates": [ -74.852544979589311, 40.67454700855285 ] } },
{ "type": "Feature", "properties": { "NAME": "FAIRMOUNT CEMETERY ASSOCIATION OF THE CITY OF NEWARK", "STREET": "95 MOUNT AIRY ROAD", "CITY": "BASKING RIDGE", "STATE": "NJ", "ZIP": "07920-0000", "OrgFocus": "Cemetery or burial activities ", "address": "95 MOUNT AIRY ROAD     , BASKING RIDGE, NJ, 07920", "lat": "40.70169201153411", "lon": "-74.57433603451324", "Stew_Gr": 0 }, "geometry": { "type": "Point", "coordinates": [ -74.574336034513237, 40.701692011534107 ] } },
{ "type": "Feature", "properties": { "NAME": "FAIRVIEW CEMETERY", "STREET": "PO BOX 850", "CITY": "WESTFIELD", "STATE": "NJ", "ZIP": "07091-0850", "OrgFocus": "Cemetery or burial activities ", "address": "PO BOX 850     , WESTFIELD, NJ, 07091", "lat": "40.6589", "lon": "-74.3479", "Stew_Gr": 0 }, "geometry": { "type": "Point", "coordinates": [ -74.3479, 40.6589 ] } },
{ "type": "Feature", "properties": { "NAME": "FAIRVIEW CEMETERY COMPANY", "STREET": "500 FAIRVIEW AVE", "CITY": "FAIRVIEW", "STATE": "NJ", "ZIP": "07022-1808", "OrgFocus": "Cemetery or burial activities ", "address": "500 FAIRVIEW AVE     , FAIRVIEW, NJ, 07022", "lat": "40.81481083408686", "lon": "-74.00361561669447", "Stew_Gr": 0 }, "geometry": { "type": "Point", "coordinates": [ -74.003615616694475, 40.814810834086863 ] } },
{ "type": "Feature", "properties": { "NAME": "MOUNT MORIAH CEMETERY OF NEW JERSEY", "STREET": "500 FAIRVIEW AVE", "CITY": "FAIRVIEW", "STATE": "NJ", "ZIP": "07022-1808", "OrgFocus": "Cemetery or burial activities ", "address": "500 FAIRVIEW AVE     , FAIRVIEW, NJ, 07022", "lat": "40.81481083408686", "lon": "-74.00361561669447", "Stew_Gr": 0 }, "geometry": { "type": "Point", "coordinates": [ -74.003615616694475, 40.814810834086863 ] } },
{ "type": "Feature", "properties": { "NAME": "FLOWER HILL CEMETERY ASSOCIATION", "STREET": "5433 KENNEDY BLVD", "CITY": "NORTH BERGEN", "STATE": "NJ", "ZIP": "07047-3121", "OrgFocus": "Cemetery or burial activities ", "address": "5433 KENNEDY BLVD     , NORTH BERGEN, NJ, 07047", "lat": "40.78719899094997", "lon": "-74.02382503916688", "Stew_Gr": 0 }, "geometry": { "type": "Point", "coordinates": [ -74.02382503916688, 40.787198990949975 ] } },
{ "type": "Feature", "properties": { "NAME": "FOREST HILL FIELD CLUB", "STREET": "9 BELLEVILLE AVE", "CITY": "BLOOMFIELD", "STATE": "NJ", "ZIP": "07003-5297", "OrgFocus": "Country club", "address": "9 BELLEVILLE AVE     , BLOOMFIELD, NJ, 07003", "lat": "40.79669340333404", "lon": "-74.17977239549808", "Stew_Gr": 0 }, "geometry": { "type": "Point", "coordinates": [ -74.179772395498077, 40.796693403334039 ] } },
{ "type": "Feature", "properties": { "NAME": "GLEN RIDGE COUNTRY CLUB", "STREET": "555 RIDGEWOOD AVE", "CITY": "GLEN RIDGE", "STATE": "NJ", "ZIP": "07028-1928", "OrgFocus": "Country club", "address": "555 RIDGEWOOD AVE     , GLEN RIDGE, NJ, 07028", "lat": "40.82496998404383", "lon": "-74.19438603995107", "Stew_Gr": 0 }, "geometry": { "type": "Point", "coordinates": [ -74.19438603995107, 40.824969984043832 ] } },
{ "type": "Feature", "properties": { "NAME": "GLENDALE CEMETERY ASSOCIATION", "STREET": "28 HOOVER AVE", "CITY": "BLOOMFIELD", "STATE": "NJ", "ZIP": "07003-5296", "OrgFocus": "Cemetery or burial activities ", "address": "28 HOOVER AVE     , BLOOMFIELD, NJ, 07003", "lat": "40.80607101358757", "lon": "-74.17707699079861", "Stew_Gr": 0 }, "geometry": { "type": "Point", "coordinates": [ -74.177076990798611, 40.806071013587569 ] } },
{ "type": "Feature", "properties": { "NAME": "GREENWOOD CEMETERY ASSOCIATION OF BOONTON NEW JERSEY", "STREET": "PO BOX 132", "CITY": "MONTVILLE", "STATE": "NJ", "ZIP": "07045-0132", "OrgFocus": "Cemetery or burial activities ", "address": "PO BOX 132     , MONTVILLE, NJ, 07045", "lat": "40.9144", "lon": "-74.3670", "Stew_Gr": 0 }, "geometry": { "type": "Point", "coordinates": [ -74.367, 40.9144 ] } },
{ "type": "Feature", "properties": { "NAME": "HACKENSACK GOLF CLUB", "STREET": "SOLDIER HILL RD", "CITY": "ORADELL", "STATE": "NJ", "ZIP": "07649-0000", "OrgFocus": "Country club", "address": "SOLDIER HILL RD     , ORADELL, NJ, 07649", "lat": "40.96276823811825", "lon": "-74.0398234484114", "Stew_Gr": 0 }, "geometry": { "type": "Point", "coordinates": [ -74.039823448411397, 40.962768238118251 ] } },
{ "type": "Feature", "properties": { "NAME": "ROSEMOUNT MEMORIAL PARK ASSN", "STREET": "PO BOX 8295", "CITY": "RED BANK", "STATE": "NJ", "ZIP": "07701-8295", "OrgFocus": "Cemetery or burial activities ", "address": "PO BOX 8295     , RED BANK, NJ, 07701", "lat": "40.3567", "lon": "-74.0751", "Stew_Gr": 0 }, "geometry": { "type": "Point", "coordinates": [ -74.0751, 40.3567 ] } },
{ "type": "Feature", "properties": { "NAME": "HILLSIDE CEMETERY ASSN OF PLAINFIELD N J", "STREET": "1401 WOODLAND AVE", "CITY": "SCOTCH PLAINS", "STATE": "NJ", "ZIP": "07076-3410", "OrgFocus": "Cemetery or burial activities ", "address": "1401 WOODLAND AVE     , SCOTCH PLAINS, NJ, 07076", "lat": "40.60596653063166", "lon": "-74.39536989034167", "Stew_Gr": 0 }, "geometry": { "type": "Point", "coordinates": [ -74.395369890341669, 40.605966530631662 ] } },
{ "type": "Feature", "properties": { "NAME": "HILLSIDE CEMETERY ASSOCIATION", "STREET": "742 RUTHERFORD AVE", "CITY": "LYNDHURST", "STATE": "NJ", "ZIP": "07071-1218", "OrgFocus": "Cemetery or burial activities ", "address": "742 RUTHERFORD AVE     , LYNDHURST, NJ, 07071", "lat": "40.81392961227191", "lon": "-74.10956726321187", "Stew_Gr": 0 }, "geometry": { "type": "Point", "coordinates": [ -74.109567263211872, 40.813929612271906 ] } },
{ "type": "Feature", "properties": { "NAME": "JERSEY CITY & HARSIMUS CEMETERY TTEE", "STREET": "435 NEWARK AVE", "CITY": "JERSEY CITY", "STATE": "NJ", "ZIP": "07302-1825", "OrgFocus": "Cemeteries, Burial Services", "address": "435 NEWARK AVE     , JERSEY CITY, NJ, 07302", "lat": "40.72743698522794", "lon": "-74.05421999937586", "Stew_Gr": 0 }, "geometry": { "type": "Point", "coordinates": [ -74.05421999937586, 40.727436985227939 ] } },
{ "type": "Feature", "properties": { "NAME": "KNICKERBOCKER COUNTRY CLUB", "STREET": "188 KNICKERBOCKER RD", "CITY": "TENAFLY", "STATE": "NJ", "ZIP": "07670-2416", "OrgFocus": "Country club", "address": "188 KNICKERBOCKER RD     , TENAFLY, NJ, 07670", "lat": "40.91868402013495", "lon": "-73.9773570252477", "Stew_Gr": 0 }, "geometry": { "type": "Point", "coordinates": [ -73.977357025247699, 40.918684020134947 ] } },
{ "type": "Feature", "properties": { "NAME": "LAKE PARSIPPANY PROPERTY OWNERS", "STREET": "701 LAKE SHORE DR", "CITY": "PARSIPPANY", "STATE": "NJ", "ZIP": "07054-3601", "OrgFocus": "Combat community deterioration", "address": "701 LAKE SHORE DR     , PARSIPPANY, NJ, 07054", "lat": "40.84819200488189", "lon": "-74.44024796338763", "Stew_Gr": 0 }, "geometry": { "type": "Point", "coordinates": [ -74.440247963387634, 40.848192004881895 ] } },
{ "type": "Feature", "properties": { "NAME": "LOCUST HILL CEMETERY ASSOCIATION", "STREET": "168 N SUSSEX ST", "CITY": "DOVER", "STATE": "NJ", "ZIP": "07801-2733", "OrgFocus": "Cemetery or burial activities ", "address": "168 N SUSSEX  ST    , DOVER, NJ, 07801", "lat": "40.89165799826927", "lon": "-74.55741096034525", "Stew_Gr": 0 }, "geometry": { "type": "Point", "coordinates": [ -74.557410960345251, 40.891657998269267 ] } },
{ "type": "Feature", "properties": { "NAME": "MACHPELAH CEMETARY ASSOC", "STREET": "PO BOX 8295", "CITY": "RED BANK", "STATE": "NJ", "ZIP": "07701-8295", "OrgFocus": "Cemeteries, Burial Services", "address": "PO BOX 8295     , RED BANK, NJ, 07701", "lat": "40.3567", "lon": "-74.0751", "Stew_Gr": 0 }, "geometry": { "type": "Point", "coordinates": [ -74.0751, 40.3567 ] } },
{ "type": "Feature", "properties": { "NAME": "MADISON GOLF CLUB", "STREET": "155 GREEN AVE", "CITY": "MADISON", "STATE": "NJ", "ZIP": "07940-2511", "OrgFocus": "Country club", "address": "155 GREEN AVE     , MADISON, NJ, 07940", "lat": "40.74916698539124", "lon": "-74.4276770364622", "Stew_Gr": 0 }, "geometry": { "type": "Point", "coordinates": [ -74.4276770364622, 40.749166985391241 ] } },
{ "type": "Feature", "properties": { "NAME": "MENDHAM CEMETERY ASSOC", "STREET": "8 MAPLE AVE", "CITY": "MENDHAM", "STATE": "NJ", "ZIP": "07945-1318", "OrgFocus": "Cemeteries, Burial Services", "address": "8 MAPLE AVE     , MENDHAM, NJ, 07945", "lat": "40.77981101385308", "lon": "-74.61019297810746", "Stew_Gr": 0 }, "geometry": { "type": "Point", "coordinates": [ -74.610192978107463, 40.779811013853077 ] } },
{ "type": "Feature", "properties": { "NAME": "METUCHEN GOLF & COUNTRY CLUB", "STREET": "244 PLAINFIELD RD", "CITY": "EDISON", "STATE": "NJ", "ZIP": "08820-2984", "OrgFocus": "Country club", "address": "244 PLAINFIELD RD     , EDISON, NJ, 08820", "lat": "40.55754201047009", "lon": "-74.37075896857807", "Stew_Gr": 0 }, "geometry": { "type": "Point", "coordinates": [ -74.370758968578073, 40.557542010470087 ] } },
{ "type": "Feature", "properties": { "NAME": "METUCHEN CEMETERY ASSOCIATION", "STREET": "52 LINCOLN AVE", "CITY": "METUCHEN", "STATE": "NJ", "ZIP": "08840-2755", "OrgFocus": "Cemetery or burial activities ", "address": "52 LINCOLN AVE     , METUCHEN, NJ, 08840", "lat": "40.53437099351285", "lon": "-74.3565160196072", "Stew_Gr": 0 }, "geometry": { "type": "Point", "coordinates": [ -74.356516019607199, 40.534370993512852 ] } },
{ "type": "Feature", "properties": { "NAME": "MONTCLAIR GOLF CLUB", "STREET": "PO BOX 194", "CITY": "MONTCLAIR", "STATE": "NJ", "ZIP": "07042-0194", "OrgFocus": "Country club", "address": "PO BOX 194     , MONTCLAIR, NJ, 07042", "lat": "40.8120", "lon": "-74.2160", "Stew_Gr": 0 }, "geometry": { "type": "Point", "coordinates": [ -74.216, 40.812 ] } },
{ "type": "Feature", "properties": { "NAME": "MORRIS COUNTY GOLF CLUB", "STREET": "36 PUNCH BOWL RD", "CITY": "MORRISTOWN", "STATE": "NJ", "ZIP": "07960-5719", "OrgFocus": "Country club", "address": "36 PUNCH BOWL RD     , MORRISTOWN, NJ, 07960", "lat": "40.78572499136706", "lon": "-74.44326201195049", "Stew_Gr": 0 }, "geometry": { "type": "Point", "coordinates": [ -74.443262011950495, 40.785724991367061 ] } },
{ "type": "Feature", "properties": { "NAME": "MORRIS COUNTY CHAMBER OF COMMERCE", "STREET": "325 COLUMBIA TPKE STE 101", "CITY": "FLORHAM PARK", "STATE": "NJ", "ZIP": "07932-1212", "OrgFocus": "Combat community deterioration", "address": "325 COLUMBIA TPKE STE 101     , FLORHAM PARK, NJ, 07932", "lat": "40.78918399326", "lon": "-74.40997403786051", "Stew_Gr": 0 }, "geometry": { "type": "Point", "coordinates": [ -74.409974037860508, 40.789183993259996 ] } },
{ "type": "Feature", "properties": { "NAME": "MOUNT HEBRON CEMETERY ASSOCIATION", "STREET": "PO BOX 43566", "CITY": "UPR MONTCLAIR", "STATE": "NJ", "ZIP": "07043-0566", "OrgFocus": "Cemetery or burial activities ", "address": "PO BOX 43566     , UPR MONTCLAIR, NJ, 07043", "lat": "40.8471", "lon": "-74.2005", "Stew_Gr": 0 }, "geometry": { "type": "Point", "coordinates": [ -74.2005, 40.8471 ] } },
{ "type": "Feature", "properties": { "NAME": "MOUNT PLEASANT CEMETERY COMPANY", "STREET": "PO BOX 9126", "CITY": "NEWARK", "STATE": "NJ", "ZIP": "07104-9126", "OrgFocus": "Cemetery or burial activities ", "address": "PO BOX 9126     , NEWARK, NJ, 07104", "lat": "40.7671", "lon": "-74.1668", "Stew_Gr": 0 }, "geometry": { "type": "Point", "coordinates": [ -74.1668, 40.7671 ] } },
{ "type": "Feature", "properties": { "NAME": "MOUNT REST CEMETERY ASSOCIATION", "STREET": "PO BOX 96", "CITY": "BERNARDSVILLE", "STATE": "NJ", "ZIP": "07924-0096", "OrgFocus": "Cemetery or burial activities ", "address": "PO BOX 96     , BERNARDSVILLE, NJ, 07924", "lat": "40.7262", "lon": "-74.5921", "Stew_Gr": 0 }, "geometry": { "type": "Point", "coordinates": [ -74.5921, 40.7262 ] } },
{ "type": "Feature", "properties": { "NAME": "MOUNT TABOR COUNTRY CLUB", "STREET": "PO BOX 59", "CITY": "MOUNT TABOR", "STATE": "NJ", "ZIP": "07878-0059", "OrgFocus": "Country club", "address": "PO BOX 59     , MOUNT TABOR, NJ, 07878", "lat": "40.8709", "lon": "-74.4793", "Stew_Gr": 0 }, "geometry": { "type": "Point", "coordinates": [ -74.4793, 40.8709 ] } },
{ "type": "Feature", "properties": { "NAME": "MOUNTAIN RIDGE COUNTRY CLUB", "STREET": "713 PASSAIC AVE", "CITY": "WEST CALDWELL", "STATE": "NJ", "ZIP": "07006-6491", "OrgFocus": "Country club", "address": "713 PASSAIC AVE     , WEST CALDWELL, NJ, 07006", "lat": "40.86097499395765", "lon": "-74.28863199161768", "Stew_Gr": 0 }, "geometry": { "type": "Point", "coordinates": [ -74.288631991617677, 40.860974993957655 ] } },
{ "type": "Feature", "properties": { "NAME": "MAPLE GROVE PARK CEMETERY ASSOCIATION", "STREET": "535 HUDSON ST", "CITY": "HACKENSACK", "STATE": "NJ", "ZIP": "07601-6607", "OrgFocus": "Cemeteries, Burial Services", "address": "535 HUDSON  ST    , HACKENSACK, NJ, 07601", "lat": "40.86134300141657", "lon": "-74.03754898069312", "Stew_Gr": 0 }, "geometry": { "type": "Point", "coordinates": [ -74.037548980693117, 40.861343001416571 ] } },
{ "type": "Feature", "properties": { "NAME": "BERGEN CREST MAUSOLEUM INC", "STREET": "PO BOX 8295", "CITY": "RED BANK", "STATE": "NJ", "ZIP": "07701-8295", "OrgFocus": "Cemetery or burial activities ", "address": "PO BOX 8295     , RED BANK, NJ, 07701", "lat": "40.3567", "lon": "-74.0751", "Stew_Gr": 0 }, "geometry": { "type": "Point", "coordinates": [ -74.0751, 40.3567 ] } },
{ "type": "Feature", "properties": { "NAME": "NEWTON CEMETERY CO", "STREET": "PO BOX 3066", "CITY": "NEWTON", "STATE": "NJ", "ZIP": "07860-3066", "OrgFocus": "Cemetery or burial activities ", "address": "PO BOX 3066     , NEWTON, NJ, 07860", "lat": "41.0644", "lon": "-74.8034", "Stew_Gr": 0 }, "geometry": { "type": "Point", "coordinates": [ -74.8034, 41.0644 ] } },
{ "type": "Feature", "properties": { "NAME": "NORTH HARDYSTON CEMETERY ASSOCIATION", "STREET": "PO BOX 346", "CITY": "HAMBURG", "STATE": "NJ", "ZIP": "07419-0346", "OrgFocus": "Cemetery or burial activities ", "address": "PO BOX 346     , HAMBURG, NJ, 07419", "lat": "41.1530", "lon": "-74.5718", "Stew_Gr": 0 }, "geometry": { "type": "Point", "coordinates": [ -74.5718, 41.153 ] } },
{ "type": "Feature", "properties": { "NAME": "NORTH JERSEY COUNTRY CLUB INC", "STREET": "594 HAMBURG TPKE", "CITY": "WAYNE", "STATE": "NJ", "ZIP": "07470-2084", "OrgFocus": "Country club", "address": "594 HAMBURG TPKE     , WAYNE, NJ, 07470", "lat": "40.95729098234199", "lon": "-74.21490996806645", "Stew_Gr": 0 }, "geometry": { "type": "Point", "coordinates": [ -74.214909968066451, 40.957290982341988 ] } },
{ "type": "Feature", "properties": { "NAME": "OHEB SHOLOM CEMETERY ASSOCIATION", "STREET": "731 BOULEVARD", "CITY": "KENILWORTH", "STATE": "NJ", "ZIP": "07033-1703", "OrgFocus": "Cemetery or burial activities ", "address": "731 BOULEVARD     , KENILWORTH, NJ, 07033", "lat": "40.6774660063337", "lon": "-74.28496398696907", "Stew_Gr": 0 }, "geometry": { "type": "Point", "coordinates": [ -74.284963986969075, 40.677466006333702 ] } },
{ "type": "Feature", "properties": { "NAME": "PACKANACK LAKE COUNTRY CLUB & COMMUNITY ASSOCIATION", "STREET": "PO BOX 1815", "CITY": "WAYNE", "STATE": "NJ", "ZIP": "07474-1815", "OrgFocus": "Country club", "address": "PO BOX 1815     , WAYNE, NJ, 07474", "lat": "40.9255", "lon": "-74.2766", "Stew_Gr": 0 }, "geometry": { "type": "Point", "coordinates": [ -74.2766, 40.9255 ] } },
{ "type": "Feature", "properties": { "NAME": "GREATER PATERSON CHAMBER OF COMMERCE", "STREET": "100 HAMILTON PLZ STE 1201", "CITY": "PATERSON", "STATE": "NJ", "ZIP": "07505-2103", "OrgFocus": "Combat community deterioration", "address": "100 HAMILTON PLZ STE 1201     , PATERSON, NJ, 07505", "lat": "40.91559101404417", "lon": "-74.16980996456454", "Stew_Gr": 0 }, "geometry": { "type": "Point", "coordinates": [ -74.169809964564536, 40.915591014044168 ] } },
{ "type": "Feature", "properties": { "NAME": "PLAINFIELD COUNTRY CLUB", "STREET": "1591 WOODLAND AVE", "CITY": "EDISON", "STATE": "NJ", "ZIP": "08820-1074", "OrgFocus": "Country club", "address": "1591 WOODLAND AVE     , EDISON, NJ, 08820", "lat": "40.59445499004539", "lon": "-74.39005402586891", "Stew_Gr": 0 }, "geometry": { "type": "Point", "coordinates": [ -74.390054025868906, 40.594454990045392 ] } },
{ "type": "Feature", "properties": { "NAME": "POLISH FALCONS OF AMERICA", "STREET": "146 IRVINE TURNER BLVD", "CITY": "NEWARK", "STATE": "NJ", "ZIP": "07103-2943", "OrgFocus": "Camp", "address": "146 IRVINE TURNER BLVD     , NEWARK, NJ, 07103", "lat": "40.72968601748798", "lon": "-74.1905600364276", "Stew_Gr": 0 }, "geometry": { "type": "Point", "coordinates": [ -74.190560036427598, 40.729686017487978 ] } },
{ "type": "Feature", "properties": { "NAME": "PREAKNESS HILLS COUNTRY CLUB", "STREET": "1050 RATZER ROAD", "CITY": "WAYNE", "STATE": "NJ", "ZIP": "07470-3384", "OrgFocus": "Country club", "address": "1050 RATZER ROAD     , WAYNE, NJ, 07470", "lat": "40.94878200951442", "lon": "-74.23358099266588", "Stew_Gr": 0 }, "geometry": { "type": "Point", "coordinates": [ -74.233580992665878, 40.948782009514417 ] } },
{ "type": "Feature", "properties": { "NAME": "RARITAN VALLEY COUNTRY CLUB", "STREET": "747 STATE ROUTE 28", "CITY": "BRIDGEWATER", "STATE": "NJ", "ZIP": "08807-2409", "OrgFocus": "Country club", "address": "747 STATE ROUTE 28     , BRIDGEWATER, NJ, 08807", "lat": "40.58290200335108", "lon": "-74.63551101956307", "Stew_Gr": 0 }, "geometry": { "type": "Point", "coordinates": [ -74.635511019563069, 40.58290200335108 ] } },
{ "type": "Feature", "properties": { "NAME": "THE RIDGEWOOD COUNTRY CLUB", "STREET": "ALYSON LLERANDI 96 W MIDLAND AVE", "CITY": "PARAMUS", "STATE": "NJ", "ZIP": "07652-0000", "OrgFocus": "Country club", "address": "ALYSON LLERANDI 96 W MIDLAND AVE     , PARAMUS, NJ, 07652", "lat": "40.95181600700684", "lon": "-74.08090303376359", "Stew_Gr": 0 }, "geometry": { "type": "Point", "coordinates": [ -74.08090303376359, 40.95181600700684 ] } },
{ "type": "Feature", "properties": { "NAME": "RIVERSIDE CEMETERY OF CLINTON N J", "STREET": "95 CENTER STREET", "CITY": "CLINTON", "STATE": "NJ", "ZIP": "08809-0000", "OrgFocus": "Cemeteries, Burial Services", "address": "95 CENTER  STREET   , CLINTON, NJ, 08809", "lat": "40.63771178006653", "lon": "-74.91090364546126", "Stew_Gr": 0 }, "geometry": { "type": "Point", "coordinates": [ -74.910903645461261, 40.637711780066532 ] } },
{ "type": "Feature", "properties": { "NAME": "PROPRIETORS OF THE ROSEDALE CEMETE", "STREET": "408 ORANGE RD", "CITY": "MONTCLAIR", "STATE": "NJ", "ZIP": "07042-4333", "OrgFocus": "Cemetery or burial activities ", "address": "408 ORANGE RD     , MONTCLAIR, NJ, 07042", "lat": "40.79124401360343", "lon": "-74.22124601631484", "Stew_Gr": 0 }, "geometry": { "type": "Point", "coordinates": [ -74.221246016314836, 40.791244013603432 ] } },
{ "type": "Feature", "properties": { "NAME": "ROSEDALE AND ROSEHILL CEMETERY ASSOCIATION", "STREET": "PO BOX 1610", "CITY": "LINDEN", "STATE": "NJ", "ZIP": "07036-0006", "OrgFocus": "Cemetery or burial activities ", "address": "PO BOX 1610     , LINDEN, NJ, 07036", "lat": "40.6248", "lon": "-74.2491", "Stew_Gr": 0 }, "geometry": { "type": "Point", "coordinates": [ -74.2491, 40.6248 ] } },
{ "type": "Feature", "properties": { "NAME": "SOMERSET HILLS COUNTRY CLUB", "STREET": "180 MINE MOUNT ROAD", "CITY": "BERNARDSVILLE", "STATE": "NJ", "ZIP": "07924-1500", "OrgFocus": "Country club", "address": "180 MINE MOUNT ROAD     , BERNARDSVILLE, NJ, 07924", "lat": "40.72324398007396", "lon": "-74.58864302122437", "Stew_Gr": 0 }, "geometry": { "type": "Point", "coordinates": [ -74.588643021224371, 40.72324398007396 ] } },
{ "type": "Feature", "properties": { "NAME": "SPRING BROOK COUNTRY CLUB", "STREET": "9 SPRING BROOK RD", "CITY": "MORRISTOWN", "STATE": "NJ", "ZIP": "07960-6319", "OrgFocus": "Country club", "address": "9 SPRING BROOK RD     , MORRISTOWN, NJ, 07960", "lat": "40.77923601529525", "lon": "-74.49502898123815", "Stew_Gr": 0 }, "geometry": { "type": "Point", "coordinates": [ -74.49502898123815, 40.779236015295254 ] } },
{ "type": "Feature", "properties": { "NAME": "SUBURBAN GOLF CLUB OF ELIZABETH", "STREET": "1730 MORRIS AVE", "CITY": "UNION", "STATE": "NJ", "ZIP": "07083-3514", "OrgFocus": "Country club", "address": "1730 MORRIS AVE     , UNION, NJ, 07083", "lat": "40.69161998140237", "lon": "-74.25790703588068", "Stew_Gr": 0 }, "geometry": { "type": "Point", "coordinates": [ -74.257907035880677, 40.691619981402368 ] } },
{ "type": "Feature", "properties": { "NAME": "UPPER MONTCLAIR COUNTRY CLUB", "STREET": "177 HEPBURN RD", "CITY": "CLIFTON", "STATE": "NJ", "ZIP": "07012-2201", "OrgFocus": "Country club", "address": "177 HEPBURN RD     , CLIFTON, NJ, 07012", "lat": "40.84769801741825", "lon": "-74.17489702542075", "Stew_Gr": 0 }, "geometry": { "type": "Point", "coordinates": [ -74.174897025420748, 40.847698017418253 ] } },
{ "type": "Feature", "properties": { "NAME": "WASHINGTON CEMETERY ASSOCIATION", "STREET": "PO BOX 8295", "CITY": "RED BANK", "STATE": "NJ", "ZIP": "07701-8295", "OrgFocus": "Cemeteries, Burial Services", "address": "PO BOX 8295     , RED BANK, NJ, 07701", "lat": "40.3567", "lon": "-74.0751", "Stew_Gr": 0 }, "geometry": { "type": "Point", "coordinates": [ -74.0751, 40.3567 ] } },
{ "type": "Feature", "properties": { "NAME": "WASHINGTON MONUMENTAL CEMETERY ASSOC", "STREET": "9 BLYTHEWOOD CT", "CITY": "N BRUNSWICK", "STATE": "NJ", "ZIP": "08902-4824", "OrgFocus": "Cemetery or burial activities ", "address": "9 BLYTHEWOOD CT     , N BRUNSWICK, NJ, 08902", "lat": "40.42971501146894", "lon": "-74.47916103269866", "Stew_Gr": 0 }, "geometry": { "type": "Point", "coordinates": [ -74.479161032698656, 40.429715011468943 ] } },
{ "type": "Feature", "properties": { "NAME": "WEEHAWKEN CEMETERY COMPANY", "STREET": "PO BOX 8295", "CITY": "RED BANK", "STATE": "NJ", "ZIP": "07701-8295", "OrgFocus": "Cemetery or burial activities ", "address": "PO BOX 8295     , RED BANK, NJ, 07701", "lat": "40.3567", "lon": "-74.0751", "Stew_Gr": 0 }, "geometry": { "type": "Point", "coordinates": [ -74.0751, 40.3567 ] } },
{ "type": "Feature", "properties": { "NAME": "WOODLAND CEMETERY COMPANY", "STREET": "PO BOX 196", "CITY": "PINE BROOK", "STATE": "NJ", "ZIP": "07058-0196", "OrgFocus": "Cemeteries, Burial Services", "address": "PO BOX 196     , PINE BROOK, NJ, 07058", "lat": "40.8658", "lon": "-74.3400", "Stew_Gr": 0 }, "geometry": { "type": "Point", "coordinates": [ -74.34, 40.8658 ] } },
{ "type": "Feature", "properties": { "NAME": "WYCKOFF REFORMED CHURCH CEMETERY", "STREET": "580 WYCKOFF AVE", "CITY": "WYCKOFF", "STATE": "NJ", "ZIP": "07481-1200", "OrgFocus": "Cemetery or burial activities ", "address": "580 WYCKOFF AVE     , WYCKOFF, NJ, 07481", "lat": "41.00681298459267", "lon": "-74.17344100502014", "Stew_Gr": 0 }, "geometry": { "type": "Point", "coordinates": [ -74.173441005020138, 41.006812984592671 ] } },
{ "type": "Feature", "properties": { "NAME": "JOE JEFFERSON CLUB INC", "STREET": "29 E SADDLE RIVER RD", "CITY": "SADDLE RIVER", "STATE": "NJ", "ZIP": "07458-3204", "OrgFocus": "Hunting or fishing club", "address": "29 E SADDLE RIVER RD     , SADDLE RIVER, NJ, 07458", "lat": "41.00954498211365", "lon": "-74.09607796654853", "Stew_Gr": 0 }, "geometry": { "type": "Point", "coordinates": [ -74.096077966548535, 41.009544982113653 ] } },
{ "type": "Feature", "properties": { "NAME": "WOODSIDE CEMETERY ASSOC", "STREET": "625 BLAKENEY PL", "CITY": "RIVER VALE", "STATE": "NJ", "ZIP": "07675-6341", "OrgFocus": "Cemetery or burial activities ", "address": "625 BLAKENEY PL     , RIVER VALE, NJ, 07675", "lat": "41.00074301986058", "lon": "-74.00475101266278", "Stew_Gr": 0 }, "geometry": { "type": "Point", "coordinates": [ -74.00475101266278, 41.000743019860579 ] } },
{ "type": "Feature", "properties": { "NAME": "MADISON AREA CHAMBER OF COMMERCE", "STREET": "PO BOX 152", "CITY": "MADISON", "STATE": "NJ", "ZIP": "07940-0152", "OrgFocus": "Combat community deterioration", "address": "PO BOX 152     , MADISON, NJ, 07940", "lat": "40.7583", "lon": "-74.4201", "Stew_Gr": 0 }, "geometry": { "type": "Point", "coordinates": [ -74.4201, 40.7583 ] } },
{ "type": "Feature", "properties": { "NAME": "OLD CEMETERY IMPROVEMENT ASSOCIATION", "STREET": "75 E MAIN ST", "CITY": "SOMERVILLE", "STATE": "NJ", "ZIP": "08876-2314", "OrgFocus": "Cemetery or burial activities ", "address": "75 E MAIN  ST    , SOMERVILLE, NJ, 08876", "lat": "40.56746999759574", "lon": "-74.60918295877482", "Stew_Gr": 0 }, "geometry": { "type": "Point", "coordinates": [ -74.609182958774824, 40.567469997595737 ] } },
{ "type": "Feature", "properties": { "NAME": "FERNWOOD CEMETERY ASSOCIATION", "STREET": "PO BOX 217", "CITY": "JAMESBURG", "STATE": "NJ", "ZIP": "08831-0217", "OrgFocus": "Cemeteries, Burial Services", "address": "PO BOX 217     , JAMESBURG, NJ, 08831", "lat": "40.3312", "lon": "-74.4170", "Stew_Gr": 0 }, "geometry": { "type": "Point", "coordinates": [ -74.417, 40.3312 ] } },
{ "type": "Feature", "properties": { "NAME": "HANOVER CEMETERY ASSOCIATION", "STREET": "15 CAROLYN CT", "CITY": "EAST HANOVER", "STATE": "NJ", "ZIP": "07936-1801", "OrgFocus": "Cemetery or burial activities ", "address": "15 CAROLYN CT     , EAST HANOVER, NJ, 07936", "lat": "40.80429698378049", "lon": "-74.39774601459398", "Stew_Gr": 0 }, "geometry": { "type": "Point", "coordinates": [ -74.397746014593977, 40.804296983780489 ] } },
{ "type": "Feature", "properties": { "NAME": "NEWTON COUNTRY CLUB", "STREET": "25 CLUB RD", "CITY": "NEWTON", "STATE": "NJ", "ZIP": "07860-2765", "OrgFocus": "Country club", "address": "25 CLUB RD     , NEWTON, NJ, 07860", "lat": "41.04674399413483", "lon": "-74.72547700383024", "Stew_Gr": 0 }, "geometry": { "type": "Point", "coordinates": [ -74.725477003830235, 41.046743994134829 ] } },
{ "type": "Feature", "properties": { "NAME": "BOONTON CEMETERY ASSOCIATION", "STREET": "PO BOX 132", "CITY": "MONTVILLE", "STATE": "NJ", "ZIP": "07045-0132", "OrgFocus": "Cemetery or burial activities ", "address": "PO BOX 132     , MONTVILLE, NJ, 07045", "lat": "40.9144", "lon": "-74.3670", "Stew_Gr": 0 }, "geometry": { "type": "Point", "coordinates": [ -74.367, 40.9144 ] } },
{ "type": "Feature", "properties": { "NAME": "SAVE THE SUMMER FLOUNDER FISHERY FUND INC", "STREET": "PO BOX 86", "CITY": "BRIELLE", "STATE": "NJ", "ZIP": "08730-0086", "OrgFocus": "Research Institutes and\/or Public Policy Analysis", "address": "PO BOX 86     , BRIELLE, NJ, 08730", "lat": "40.1050", "lon": "-74.0646", "Stew_Gr": 0 }, "geometry": { "type": "Point", "coordinates": [ -74.0646, 40.105 ] } },
{ "type": "Feature", "properties": { "NAME": "GREEN BROOK COUNTRY CLUB", "STREET": "100 W GREENBROOK RD", "CITY": "N CALDWELL", "STATE": "NJ", "ZIP": "07006-4757", "OrgFocus": "Country club", "address": "100 W GREENBROOK RD     , N CALDWELL, NJ, 07006", "lat": "40.86891701485445", "lon": "-74.26992299699687", "Stew_Gr": 0 }, "geometry": { "type": "Point", "coordinates": [ -74.269922996996868, 40.868917014854446 ] } },
{ "type": "Feature", "properties": { "NAME": "COPPER HILL COUNTRY CLUB INC", "STREET": "100 COPPER HILL RD", "CITY": "RINGOES", "STATE": "NJ", "ZIP": "08551-1903", "OrgFocus": "Country club", "address": "100 COPPER HILL RD     , RINGOES, NJ, 08551", "lat": "40.46798900257238", "lon": "-74.86836003831976", "Stew_Gr": 0 }, "geometry": { "type": "Point", "coordinates": [ -74.868360038319764, 40.467989002572381 ] } },
{ "type": "Feature", "properties": { "NAME": "WEST RIDGELAWN CEMETERY", "STREET": "PO BOX 1041", "CITY": "CLIFTON", "STATE": "NJ", "ZIP": "07014-1041", "OrgFocus": "Cemetery or burial activities ", "address": "PO BOX 1041     , CLIFTON, NJ, 07014", "lat": "40.8324", "lon": "-74.1398", "Stew_Gr": 0 }, "geometry": { "type": "Point", "coordinates": [ -74.1398, 40.8324 ] } },
{ "type": "Feature", "properties": { "NAME": "BNAI JESHURUN CEMETERY ASSOCIATION", "STREET": "1025 S ORANGE AVE", "CITY": "SHORT HILLS", "STATE": "NJ", "ZIP": "07078-3135", "OrgFocus": "Cemetery or burial activities ", "address": "1025 S ORANGE AVE     , SHORT HILLS, NJ, 07078", "lat": "40.75722999906037", "lon": "-74.3126070007275", "Stew_Gr": 0 }, "geometry": { "type": "Point", "coordinates": [ -74.312607000727496, 40.757229999060371 ] } },
{ "type": "Feature", "properties": { "NAME": "WOMENS CLUB OF GLEN RIDGE", "STREET": "219 RIDGEWOOD AVE", "CITY": "GLEN RIDGE", "STATE": "NJ", "ZIP": "07028-1305", "OrgFocus": "Combat community deterioration", "address": "219 RIDGEWOOD AVE     , GLEN RIDGE, NJ, 07028", "lat": "40.79947298895544", "lon": "-74.20467901705051", "Stew_Gr": 0 }, "geometry": { "type": "Point", "coordinates": [ -74.204679017050509, 40.799472988955443 ] } },
{ "type": "Feature", "properties": { "NAME": "RACCOON ISLAND TRANSPORTATION COMPANY", "STREET": "PO BOX 59", "CITY": "LK HOPATCONG", "STATE": "NJ", "ZIP": "07849-0059", "OrgFocus": "Homeowners association", "address": "PO BOX 59     , LK HOPATCONG, NJ, 07849", "lat": "40.9743", "lon": "-74.5823", "Stew_Gr": 0 }, "geometry": { "type": "Point", "coordinates": [ -74.5823, 40.9743 ] } },
{ "type": "Feature", "properties": { "NAME": "SUBURBAN CHAMBERS OF COMMERCE", "STREET": "24 BEECHWOOD RD NO 229", "CITY": "SUMMIT", "STATE": "NJ", "ZIP": "07901-2516", "OrgFocus": "Combat community deterioration", "address": "24 BEECHWOOD RD NO 229     , SUMMIT, NJ, 07901", "lat": "40.71769593829713", "lon": "-74.3576294875955", "Stew_Gr": 0 }, "geometry": { "type": "Point", "coordinates": [ -74.357629487595503, 40.717695938297133 ] } },
{ "type": "Feature", "properties": { "NAME": "FAYSON LAKES ASSOCIATION", "STREET": "10 CLUBHOUSE TRL", "CITY": "KINNELON", "STATE": "NJ", "ZIP": "07405-2802", "OrgFocus": "Homeowners association", "address": "10 CLUBHOUSE TRL     , KINNELON, NJ, 07405", "lat": "40.97436198544426", "lon": "-74.36668896785318", "Stew_Gr": 0 }, "geometry": { "type": "Point", "coordinates": [ -74.366688967853179, 40.974361985444261 ] } },
{ "type": "Feature", "properties": { "NAME": "VERITANS CLUB", "STREET": "225 POMPTON RD", "CITY": "HALEDON", "STATE": "NJ", "ZIP": "07508-1665", "OrgFocus": "Camp", "address": "225 POMPTON RD     , HALEDON, NJ, 07508", "lat": "40.94059183253793", "lon": "-74.19528990633282", "Stew_Gr": 0 }, "geometry": { "type": "Point", "coordinates": [ -74.195289906332818, 40.940591832537926 ] } },
{ "type": "Feature", "properties": { "NAME": "TRANQUILITY CEMETERY ASSOCIATION A CORPORATION", "STREET": "311 PEQUEST RD", "CITY": "ANDOVER", "STATE": "NJ", "ZIP": "07821-2127", "OrgFocus": "Cemetery or burial activities ", "address": "311 PEQUEST RD     , ANDOVER, NJ, 07821", "lat": "40.9832760137428", "lon": "-74.76493196318155", "Stew_Gr": 0 }, "geometry": { "type": "Point", "coordinates": [ -74.764931963181553, 40.983276013742795 ] } },
{ "type": "Feature", "properties": { "NAME": "FAMILY SERVICE BUREAU OF NEWARK N J", "STREET": "233 W MARKET ST", "CITY": "NEWARK", "STATE": "NJ", "ZIP": "07103-2713", "OrgFocus": "Combat community deterioration", "address": "233 W MARKET  ST    , NEWARK, NJ, 07103", "lat": "40.74303000734329", "lon": "-74.18602701937129", "Stew_Gr": 0 }, "geometry": { "type": "Point", "coordinates": [ -74.186027019371295, 40.743030007343293 ] } },
{ "type": "Feature", "properties": { "NAME": "JEWISH COMMUNITY CENTER ON THE PALISADES", "STREET": "411 E CLINTON AVE", "CITY": "TENAFLY", "STATE": "NJ", "ZIP": "07670-2319", "OrgFocus": "YMCA, YWCA, YMCA, etc.", "address": "411 E CLINTON AVE     , TENAFLY, NJ, 07670", "lat": "40.91286500958392", "lon": "-73.94436996148171", "Stew_Gr": 0 }, "geometry": { "type": "Point", "coordinates": [ -73.944369961481712, 40.912865009583925 ] } },
{ "type": "Feature", "properties": { "NAME": "NEW JERSEY FEDERATION OF YNG MENS HEBREW ASSN & YNG WOMENS HBRW ASSN", "STREET": "21 PLYMOUTH ST", "CITY": "FAIRFIELD", "STATE": "NJ", "ZIP": "07004-1615", "OrgFocus": "YMCA, YWCA, YMCA, etc., Camp", "address": "21 PLYMOUTH  ST    , FAIRFIELD, NJ, 07004", "lat": "40.86957998148611", "lon": "-74.31183100413151", "Stew_Gr": 0 }, "geometry": { "type": "Point", "coordinates": [ -74.311831004131506, 40.869579981486112 ] } },
{ "type": "Feature", "properties": { "NAME": "NEWARK DAY CENTER", "STREET": "41-43 HILL STREET", "CITY": "NEWARK", "STATE": "NJ", "ZIP": "07102-0000", "OrgFocus": "Camp", "address": "41-43 HILL  STREET   , NEWARK, NJ, 07102", "lat": "40.73249898419365", "lon": "-74.17650299806917", "Stew_Gr": 0 }, "geometry": { "type": "Point", "coordinates": [ -74.176502998069168, 40.732498984193654 ] } },
{ "type": "Feature", "properties": { "NAME": "RAHWAY CEMETERY", "STREET": "1670 ST GEORGES AVENUE", "CITY": "RAHWAY", "STATE": "NJ", "ZIP": "07065-2006", "OrgFocus": "Cemeteries, Burial Services", "address": "1670  ST    , RAHWAY, NJ, 07065", "lat": "40.60221000000007", "lon": "-74.28526999999997", "Stew_Gr": 0 }, "geometry": { "type": "Point", "coordinates": [ -74.28527, 40.60221 ] } },
{ "type": "Feature", "properties": { "NAME": "UNITED FAMILY AND CHILDRENS SOCIETY", "STREET": "305 W 7TH ST", "CITY": "PLAINFIELD", "STATE": "NJ", "ZIP": "07060-1511", "OrgFocus": "Combat community deterioration", "address": "305 W 7TH  ST    , PLAINFIELD, NJ, 07060", "lat": "40.61289550679196", "lon": "-74.41960345917484", "Stew_Gr": 0 }, "geometry": { "type": "Point", "coordinates": [ -74.419603459174837, 40.612895506791958 ] } },
{ "type": "Feature", "properties": { "NAME": "WEST ORANGE COMMUNITY HOUSE AND BOYS & GIRLS CLUB INC", "STREET": "242 MAIN ST", "CITY": "WEST ORANGE", "STATE": "NJ", "ZIP": "07052-5616", "OrgFocus": "Combat community deterioration", "address": "242 MAIN  ST    , WEST ORANGE, NJ, 07052", "lat": "40.7858940124446", "lon": "-74.23311596467771", "Stew_Gr": 0 }, "geometry": { "type": "Point", "coordinates": [ -74.233115964677708, 40.785894012444601 ] } },
{ "type": "Feature", "properties": { "NAME": "YOUNG MENS CHRISTIAN ASSOCIATION OF EASTERN UNION COUNTY", "STREET": "135 MADISON AVE", "CITY": "ELIZABETH", "STATE": "NJ", "ZIP": "07201-2420", "OrgFocus": "YMCA, YWCA, YMCA, etc.", "address": "135 MADISON AVE     , ELIZABETH, NJ, 07201", "lat": "40.66532398139375", "lon": "-74.21019900320573", "Stew_Gr": 0 }, "geometry": { "type": "Point", "coordinates": [ -74.21019900320573, 40.665323981393755 ] } },
{ "type": "Feature", "properties": { "NAME": "HOBOKEN COMMUNITY CENTER INC", "STREET": "1301 WASHINGTON ST", "CITY": "HOBOKEN", "STATE": "NJ", "ZIP": "07030-5557", "OrgFocus": "Community Recreational Centers", "address": "1301 WASHINGTON  ST    , HOBOKEN, NJ, 07030", "lat": "40.75261198950588", "lon": "-74.02584700566989", "Stew_Gr": 0 }, "geometry": { "type": "Point", "coordinates": [ -74.025847005669888, 40.75261198950588 ] } },
{ "type": "Feature", "properties": { "NAME": "YOUNG MENS CHRISTIAN ASSOCIATION OF MADISON NJ", "STREET": "111 KINGS ROAD", "CITY": "MADISON", "STATE": "NJ", "ZIP": "07940-0000", "OrgFocus": "YMCA, YWCA, YMCA, etc.", "address": "111 KINGS ROAD     , MADISON, NJ, 07940", "lat": "40.7536459810816", "lon": "-74.41259598099282", "Stew_Gr": 0 }, "geometry": { "type": "Point", "coordinates": [ -74.412595980992819, 40.753645981081604 ] } },
{ "type": "Feature", "properties": { "NAME": "METROPOLITAN YMCA OF THE ORANGES INC", "STREET": "139 E MCCLELLAN AVE", "CITY": "LIVINGSTON", "STATE": "NJ", "ZIP": "07039-1320", "OrgFocus": "YMCA, YWCA, YMCA, etc.", "address": "139 E MCCLELLAN AVE     , LIVINGSTON, NJ, 07039", "lat": "40.8065839860619", "lon": "-74.30295699942063", "Stew_Gr": 0 }, "geometry": { "type": "Point", "coordinates": [ -74.30295699942063, 40.806583986061895 ] } },
{ "type": "Feature", "properties": { "NAME": "YOUNG MENS CHRISTIAN ASSOC", "STREET": "128 WARD ST", "CITY": "PATERSON", "STATE": "NJ", "ZIP": "07505-1953", "OrgFocus": "Camp", "address": "128 WARD  ST    , PATERSON, NJ, 07505", "lat": "40.91469708398149", "lon": "-74.17018123165914", "Stew_Gr": 0 }, "geometry": { "type": "Point", "coordinates": [ -74.170181231659143, 40.914697083981487 ] } },
{ "type": "Feature", "properties": { "NAME": "RARITAN BAY AREA YOUNG MENS CHRISTIAN ASSOCIATION", "STREET": "365 NEW BRUNSWICK AVE", "CITY": "PERTH AMBOY", "STATE": "NJ", "ZIP": "08861-3979", "OrgFocus": "YMCA, YWCA, YMCA, etc.", "address": "365 NEW BRUNSWICK AVE     , PERTH AMBOY, NJ, 08861", "lat": "40.51491600950942", "lon": "-74.27679900744781", "Stew_Gr": 0 }, "geometry": { "type": "Point", "coordinates": [ -74.276799007447806, 40.51491600950942 ] } },
{ "type": "Feature", "properties": { "NAME": "SUMMIT AREA YMCA", "STREET": "99 MORRIS AVE", "CITY": "SUMMIT", "STATE": "NJ", "ZIP": "07901-3953", "OrgFocus": "YMCA, YWCA, YMCA, etc.", "address": "99 MORRIS AVE     , SUMMIT, NJ, 07901", "lat": "40.71201000861453", "lon": "-74.34593696815239", "Stew_Gr": 0 }, "geometry": { "type": "Point", "coordinates": [ -74.345936968152387, 40.712010008614527 ] } },
{ "type": "Feature", "properties": { "NAME": "YOUNG MENS-YOUNG WOMENS HEBREW ASSOCIATION OF BERGEN COUNTY", "STREET": "50 EISENHOWER DRIVE", "CITY": "PARAMUS", "STATE": "NJ", "ZIP": "07652-1429", "OrgFocus": "YMCA, YWCA, YMCA, etc.", "address": "50 EISENHOWER DRIVE     , PARAMUS, NJ, 07652", "lat": "40.92908001082441", "lon": "-74.07703201942007", "Stew_Gr": 0 }, "geometry": { "type": "Point", "coordinates": [ -74.077032019420074, 40.929080010824407 ] } },
{ "type": "Feature", "properties": { "NAME": "YWCA OF EASTERN UNION COUNTY", "STREET": "1131 E JERSEY ST", "CITY": "ELIZABETH", "STATE": "NJ", "ZIP": "07201-2440", "OrgFocus": "YMCA, YWCA, YMCA, etc.", "address": "1131 E JERSEY  ST    , ELIZABETH, NJ, 07201", "lat": "40.66470668376679", "lon": "-74.21253020059032", "Stew_Gr": 0 }, "geometry": { "type": "Point", "coordinates": [ -74.212530200590322, 40.664706683766795 ] } },
{ "type": "Feature", "properties": { "NAME": "MONTCLAIR FUND FOR WOMEN INC", "STREET": "41 WATCHUNG PLZ", "CITY": "MONTCLAIR", "STATE": "NJ", "ZIP": "07042-4117", "OrgFocus": "YMCA, YWCA, YMCA, etc.", "address": "41 WATCHUNG PLZ     , MONTCLAIR, NJ, 07042", "lat": "40.83023499270448", "lon": "-74.20597703857625", "Stew_Gr": 0 }, "geometry": { "type": "Point", "coordinates": [ -74.20597703857625, 40.830234992704476 ] } },
{ "type": "Feature", "properties": { "NAME": "YMCA OF METUCHEN NJ", "STREET": "483 MIDDLESEX AVE", "CITY": "METUCHEN", "STATE": "NJ", "ZIP": "08840-1419", "OrgFocus": "YMCA, YWCA, YMCA, etc.", "address": "483 MIDDLESEX AVE     , METUCHEN, NJ, 08840", "lat": "40.54430099229529", "lon": "-74.3611150022415", "Stew_Gr": 0 }, "geometry": { "type": "Point", "coordinates": [ -74.361115002241505, 40.544300992295291 ] } },
{ "type": "Feature", "properties": { "NAME": "YOUNG MENS CHRISTIAN ASSOCIATION OF MONTCLAIR", "STREET": "25 PARK ST", "CITY": "MONTCLAIR", "STATE": "NJ", "ZIP": "07042-3407", "OrgFocus": "YMCA, YWCA, YMCA, etc.", "address": "25 PARK  ST    , MONTCLAIR, NJ, 07042", "lat": "40.81543498244855", "lon": "-74.21799601717758", "Stew_Gr": 0 }, "geometry": { "type": "Point", "coordinates": [ -74.217996017177583, 40.815434982448551 ] } },
{ "type": "Feature", "properties": { "NAME": "THE GREATER MORRISTOWN YMCA INC", "STREET": "79 HORSEHILL RD", "CITY": "CEDAR KNOLLS", "STATE": "NJ", "ZIP": "07927-2003", "OrgFocus": "YMCA, YWCA, YMCA, etc.", "address": "79 HORSEHILL RD     , CEDAR KNOLLS, NJ, 07927", "lat": "40.81234801132808", "lon": "-74.46511204096727", "Stew_Gr": 0 }, "geometry": { "type": "Point", "coordinates": [ -74.46511204096727, 40.812348011328083 ] } },
{ "type": "Feature", "properties": { "NAME": "YOUNG MENS AND YOUNG WOMENS HEBREW ASSOCIATION OF NORTH JERSEY", "STREET": "1 PIKE DRIVE", "CITY": "WAYNE", "STATE": "NJ", "ZIP": "07470-2443", "OrgFocus": "YMCA, YWCA, YMCA, etc.", "address": "1 PIKE DRIVE     , WAYNE, NJ, 07470", "lat": "40.95046300019624", "lon": "-74.22128800964974", "Stew_Gr": 0 }, "geometry": { "type": "Point", "coordinates": [ -74.22128800964974, 40.950463000196237 ] } },
{ "type": "Feature", "properties": { "NAME": "RARITAN VALLEY Y M C A", "STREET": "144 TICES LN", "CITY": "E BRUNSWICK", "STATE": "NJ", "ZIP": "08816-2014", "OrgFocus": "YMCA, YWCA, YMCA, etc.", "address": "144 TICES LN     , E BRUNSWICK, NJ, 08816", "lat": "40.45272400623779", "lon": "-74.41553601735063", "Stew_Gr": 0 }, "geometry": { "type": "Point", "coordinates": [ -74.415536017350632, 40.452724006237787 ] } },
{ "type": "Feature", "properties": { "NAME": "YOUNG WOMENS CHRISTIAN ASSOCIATION", "STREET": "214 STATE ST STE 207", "CITY": "HACKENSACK", "STATE": "NJ", "ZIP": "07601-5521", "OrgFocus": "YMCA, YWCA, YMCA, etc.", "address": "214 STATE  ST    , HACKENSACK, NJ, 07601", "lat": "40.88521375070133", "lon": "-74.0439408792727", "Stew_Gr": 0 }, "geometry": { "type": "Point", "coordinates": [ -74.043940879272697, 40.885213750701332 ] } },
{ "type": "Feature", "properties": { "NAME": "HAZELWOOD CEMETERY CO", "STREET": "64 LAKE AVE", "CITY": "COLONIA", "STATE": "NJ", "ZIP": "07067-1323", "OrgFocus": "Cemetery or burial activities ", "address": "64 LAKE AVE     , COLONIA, NJ, 07067", "lat": "40.60708601521657", "lon": "-74.30561003941372", "Stew_Gr": 0 }, "geometry": { "type": "Point", "coordinates": [ -74.305610039413722, 40.607086015216566 ] } },
{ "type": "Feature", "properties": { "NAME": "BAYONNE JEWISH COMMUNITY CENTER", "STREET": "1050 KENNEDY BLVD", "CITY": "BAYONNE", "STATE": "NJ", "ZIP": "07002-2045", "OrgFocus": "YMCA, YWCA, YMCA, etc.", "address": "1050 KENNEDY BLVD     , BAYONNE, NJ, 07002", "lat": "40.68229800587628", "lon": "-74.11084403009659", "Stew_Gr": 0 }, "geometry": { "type": "Point", "coordinates": [ -74.110844030096587, 40.682298005876277 ] } },
{ "type": "Feature", "properties": { "NAME": "ORANGE VALLEY SOCIAL SETTLEMENT TTEES", "STREET": "33 TOMPKINS ST # 41", "CITY": "WEST ORANGE", "STATE": "NJ", "ZIP": "07052-5109", "OrgFocus": "Neighborhood Centers, Settlement Houses", "address": "33 TOMPKINS  ST    , WEST ORANGE, NJ, 07052", "lat": "40.76806700358543", "lon": "-74.24589099094545", "Stew_Gr": 0 }, "geometry": { "type": "Point", "coordinates": [ -74.245890990945455, 40.768067003585429 ] } },
{ "type": "Feature", "properties": { "NAME": "WOMENRISING INC", "STREET": "270 FAIRMOUNT AVE", "CITY": "JERSEY CITY", "STATE": "NJ", "ZIP": "07306-4712", "OrgFocus": "YMCA, YWCA, YMCA, etc.", "address": "270 FAIRMOUNT AVE     , JERSEY CITY, NJ, 07306", "lat": "40.7241260077451", "lon": "-74.06886502824206", "Stew_Gr": 0 }, "geometry": { "type": "Point", "coordinates": [ -74.068865028242058, 40.724126007745099 ] } },
{ "type": "Feature", "properties": { "NAME": "YOUNG MENS CHRISTIAN ASSOCIATION OF RIDGEWOOD NJ", "STREET": "112 OAK ST", "CITY": "RIDGEWOOD", "STATE": "NJ", "ZIP": "07450-2509", "OrgFocus": "YMCA, YWCA, YMCA, etc.", "address": "112 OAK  ST    , RIDGEWOOD, NJ, 07450", "lat": "40.98285297908953", "lon": "-74.11775298142702", "Stew_Gr": 0 }, "geometry": { "type": "Point", "coordinates": [ -74.117752981427017, 40.982852979089529 ] } },
{ "type": "Feature", "properties": { "NAME": "ROSEMONT CEMETERY", "STREET": "PO BOX 67", "CITY": "ROSEMONT", "STATE": "NJ", "ZIP": "08556-0067", "OrgFocus": "Cemetery or burial activities ", "address": "PO BOX 67     , ROSEMONT, NJ, 08556", "lat": "40.4337", "lon": "-75.0009", "Stew_Gr": 0 }, "geometry": { "type": "Point", "coordinates": [ -75.0009, 40.4337 ] } },
{ "type": "Feature", "properties": { "NAME": "FELLOWSHIP DEACONRY INC", "STREET": "PO BOX 204", "CITY": "LIBERTY COR", "STATE": "NJ", "ZIP": "07938-0204", "OrgFocus": "Camp", "address": "PO BOX 204     , LIBERTY COR, NJ, 07938", "lat": "40.6644", "lon": "-74.5775", "Stew_Gr": 0 }, "geometry": { "type": "Point", "coordinates": [ -74.5775, 40.6644 ] } },
{ "type": "Feature", "properties": { "NAME": "FRENCHTOWN CEMETERY", "STREET": "PO BOX 8", "CITY": "FRENCHTOWN", "STATE": "NJ", "ZIP": "08825-0008", "OrgFocus": "Cemeteries, Burial Services", "address": "PO BOX 8     , FRENCHTOWN, NJ, 08825", "lat": "40.5083", "lon": "-75.0142", "Stew_Gr": 0 }, "geometry": { "type": "Point", "coordinates": [ -75.0142, 40.5083 ] } },
{ "type": "Feature", "properties": { "NAME": "CHARLES EDISON FUND", "STREET": "ONE RIVERFRONT PLAZA 3RD FLOOR", "CITY": "NEWARK", "STATE": "NJ", "ZIP": "07102-5408", "OrgFocus": "Preservation of natural resources (conservation)", "address": "ONE RIVERFRONT PLAZA 3RD FLOOR     , NEWARK, NJ, 07102", "lat": "40.73565472455205", "lon": "-74.16496495801904", "Stew_Gr": 0 }, "geometry": { "type": "Point", "coordinates": [ -74.164964958019041, 40.735654724552049 ] } },
{ "type": "Feature", "properties": { "NAME": "HUNTERDON COUNTY YOUNG MENS CHRISTIAN ASSOCIATION", "STREET": "1410 ROUTE 22 WEST", "CITY": "ANNANDALE", "STATE": "NJ", "ZIP": "08801-3057", "OrgFocus": "YMCA, YWCA, YMCA, etc.", "address": "1410 ROUTE 22 WEST     , ANNANDALE, NJ, 08801", "lat": "40.64451200917574", "lon": "-74.85293599537245", "Stew_Gr": 0 }, "geometry": { "type": "Point", "coordinates": [ -74.852935995372448, 40.644512009175742 ] } },
{ "type": "Feature", "properties": { "NAME": "TRUSTEES OF THE ROCKAWAY VALLEY CEMETERY ASSOCIATION", "STREET": "PO BOX 193", "CITY": "BOONTON", "STATE": "NJ", "ZIP": "07005-0193", "OrgFocus": "Cemeteries, Burial Services", "address": "PO BOX 193     , BOONTON, NJ, 07005", "lat": "40.9355", "lon": "-74.4217", "Stew_Gr": 0 }, "geometry": { "type": "Point", "coordinates": [ -74.4217, 40.9355 ] } },
{ "type": "Feature", "properties": { "NAME": "MIDDLESEX COUNTY RECREATION COUNCIL KIDDIE KEEP WELL CAMP", "STREET": "35 ROOSEVELT DR", "CITY": "EDISON", "STATE": "NJ", "ZIP": "08837-2334", "OrgFocus": "Camp", "address": "35 ROOSEVELT DR     , EDISON, NJ, 08837", "lat": "40.54355959137358", "lon": "-74.33755414527771", "Stew_Gr": 0 }, "geometry": { "type": "Point", "coordinates": [ -74.337554145277707, 40.54355959137358 ] } },
{ "type": "Feature", "properties": { "NAME": "LOWER VALLEY UNION CEMETARY ASSOC", "STREET": "10 KELLIE CT", "CITY": "CALIFON", "STATE": "NJ", "ZIP": "07830-4301", "OrgFocus": "Cemeteries, Burial Services", "address": "10 KELLIE CT     , CALIFON, NJ, 07830", "lat": "40.72093401137784", "lon": "-74.84097602536947", "Stew_Gr": 0 },